[
  {
    "id": "way/35771226",
    "lat": -28.4585977,
    "lon": -65.8118921,
    "name": "Embalse El Jumeal",
    "categoria": "water",
    "extra": {
      "@id": "way/35771226",
      "name": "Embalse El Jumeal",
      "natural": "water",
      "source": "Landsat;Bing",
      "water": "reservoir",
      "@geometry": "center"
    }
  },
  {
    "id": "way/35823053",
    "lat": -28.4440506,
    "lon": -65.7767724,
    "name": "Plaza Altos de Choya",
    "categoria": "otro",
    "extra": {
      "@id": "way/35823053",
      "leisure": "park",
      "name": "Plaza Altos de Choya",
      "@geometry": "center"
    }
  },
  {
    "id": "way/36047323",
    "lat": -28.4639429,
    "lon": -65.7739582,
    "name": "Plazoleta Italia",
    "categoria": "otro",
    "extra": {
      "@id": "way/36047323",
      "leisure": "park",
      "name": "Plazoleta Italia",
      "@geometry": "center"
    }
  },
  {
    "id": "way/36240628",
    "lat": -28.466857,
    "lon": -65.7793798,
    "name": "Iglesia y Convento de San Francisco",
    "categoria": "place_of_worship",
    "extra": {
      "@id": "way/36240628",
      "addr:city": "San Fernando del Valle de Catamarca",
      "addr:housenumber": "558",
      "addr:postcode": "K4700BIL",
      "addr:street": "Esquiú",
      "amenity": "place_of_worship",
      "building": "church",
      "denomination": "catholic",
      "height": "12",
      "name": "Iglesia y Convento de San Francisco",
      "religion": "christian",
      "@geometry": "center"
    }
  },
  {
    "id": "way/36250693",
    "lat": -28.461441,
    "lon": -65.7666924,
    "name": "Parque de los Niños",
    "categoria": "otro",
    "extra": {
      "@id": "way/36250693",
      "landuse": "recreation_ground",
      "leisure": "park",
      "name": "Parque de los Niños",
      "@geometry": "center"
    }
  },
  {
    "id": "way/36252179",
    "lat": -28.4500931,
    "lon": -65.7888271,
    "name": "Plaza Juan Pablo II",
    "categoria": "otro",
    "extra": {
      "@id": "way/36252179",
      "leisure": "park",
      "loc_name": "Plaza de Choya",
      "name": "Plaza Juan Pablo II",
      "@geometry": "center"
    }
  },
  {
    "id": "way/36373669",
    "lat": -28.4689318,
    "lon": -65.7801852,
    "name": "Catedral Basilica de Nuestra Señora del Valle",
    "categoria": "place_of_worship",
    "extra": {
      "@id": "way/36373669",
      "addr:city": "San Fernando del Valle de Catamarca",
      "addr:postcode": "K4700EMM",
      "addr:street": "Sarmiento",
      "amenity": "place_of_worship",
      "building": "cathedral",
      "denomination": "catholic",
      "height": "9",
      "name": "Catedral Basilica de Nuestra Señora del Valle",
      "official_name": "Catedral Basílica del Santísimo Sacramento y Santuario de Nuestra Señora del Valle",
      "religion": "christian",
      "wikidata": "Q2942782",
      "@geometry": "center"
    }
  },
  {
    "id": "way/36374156",
    "lat": -28.4689554,
    "lon": -65.7843972,
    "name": "Iglesia del Corazón de Maria",
    "categoria": "place_of_worship",
    "extra": {
      "@id": "way/36374156",
      "amenity": "place_of_worship",
      "building": "church",
      "denomination": "catholic",
      "name": "Iglesia del Corazón de Maria",
      "religion": "christian",
      "@geometry": "center"
    }
  },
  {
    "id": "way/36743280",
    "lat": -28.4636348,
    "lon": -65.8329389,
    "name": "Camping Municipal de La Quebrada",
    "categoria": "camp_site",
    "extra": {
      "@id": "way/36743280",
      "access": "yes",
      "addr:city": "San Fernando del Valle de Catamarca",
      "addr:street": "Ruta Provincial 4",
      "bbq": "yes",
      "caravans": "yes",
      "fee": "no",
      "internet_access": "yes",
      "landuse": "recreation_ground",
      "lit": "yes",
      "name": "Camping Municipal de La Quebrada",
      "operator": "Municipalidad de San Fernando del Valle de Catamarca",
      "picnic_table": "yes",
      "power_supply": "yes",
      "reservation": "no",
      "tents": "yes",
      "toilets": "yes",
      "tourism": "camp_site",
      "@geometry": "center"
    }
  },
  {
    "id": "way/36859578",
    "lat": -28.0653194,
    "lon": -65.5802592,
    "name": "Dique Sumampa",
    "categoria": "water",
    "extra": {
      "@id": "way/36859578",
      "name": "Dique Sumampa",
      "natural": "water",
      "source": "Landsat",
      "@geometry": "center"
    }
  },
  {
    "id": "way/37017442",
    "lat": -28.464743,
    "lon": -65.7691743,
    "name": "Plaza Jorge Bermúdez",
    "categoria": "otro",
    "extra": {
      "@id": "way/37017442",
      "alt_name": "Plaza Doctor Juan Eusebio Torrent",
      "leisure": "park",
      "loc_name": "Plaza de los Enamorados",
      "name": "Plaza Jorge Bermúdez",
      "official_name": "Plaza Diputado Eduardo Torrent",
      "@geometry": "center"
    }
  },
  {
    "id": "way/37125274",
    "lat": -28.4606319,
    "lon": -65.7885234,
    "name": "Rotonda General Güemes",
    "categoria": "otro",
    "extra": {
      "@id": "way/37125274",
      "leisure": "park",
      "name": "Rotonda General Güemes",
      "@geometry": "center"
    }
  },
  {
    "id": "way/37265691",
    "lat": -28.4554594,
    "lon": -65.7437368,
    "name": "Plazoleta Ramón Garriga",
    "categoria": "otro",
    "extra": {
      "@id": "way/37265691",
      "leisure": "park",
      "name": "Plazoleta Ramón Garriga",
      "@geometry": "center"
    }
  },
  {
    "id": "way/37355351",
    "lat": -28.4634558,
    "lon": -65.7955589,
    "name": "Plaza El Ombú",
    "categoria": "otro",
    "extra": {
      "@id": "way/37355351",
      "leisure": "park",
      "name": "Plaza El Ombú",
      "@geometry": "center"
    }
  },
  {
    "id": "way/37387785",
    "lat": -28.1547192,
    "lon": -65.795106,
    "name": "Camping Municipal La Puerta",
    "categoria": "camp_site",
    "extra": {
      "@id": "way/37387785",
      "is_in": "La Puerta",
      "is_in:municipality": "Ambato",
      "name": "Camping Municipal La Puerta",
      "tourism": "camp_site",
      "@geometry": "center"
    }
  },
  {
    "id": "way/38790949",
    "lat": -28.4607016,
    "lon": -65.7627047,
    "name": "Rotonda del Inmigrante Italiano",
    "categoria": "otro",
    "extra": {
      "@id": "way/38790949",
      "leisure": "park",
      "loc_name": "Rotonda del Regimiento",
      "name": "Rotonda del Inmigrante Italiano",
      "@geometry": "center"
    }
  },
  {
    "id": "way/39276100",
    "lat": -28.1733137,
    "lon": -65.7915743,
    "name": "Camping Los Viscotes",
    "categoria": "camp_site",
    "extra": {
      "@id": "way/39276100",
      "is_in:municipality": "Ambato",
      "name": "Camping Los Viscotes",
      "tourism": "camp_site",
      "@geometry": "center"
    }
  },
  {
    "id": "way/40721064",
    "lat": -28.3555017,
    "lon": -65.7106147,
    "name": "Camping La Carrera",
    "categoria": "picnic_site",
    "extra": {
      "@id": "way/40721064",
      "addr:city": "La Carrera",
      "name": "Camping La Carrera",
      "operator": "Municipalidad de Fray Mamerto Esquiu",
      "tourism": "picnic_site",
      "@geometry": "center"
    }
  },
  {
    "id": "way/41226971",
    "lat": -28.2826115,
    "lon": -65.7330637,
    "name": "Camping Pirquitas",
    "categoria": "camp_site",
    "extra": {
      "@id": "way/41226971",
      "name": "Camping Pirquitas",
      "tourism": "camp_site",
      "@geometry": "center"
    }
  },
  {
    "id": "way/44785754",
    "lat": -28.4674666,
    "lon": -65.7707339,
    "name": "Plazoleta",
    "categoria": "otro",
    "extra": {
      "@id": "way/44785754",
      "leisure": "park",
      "name": "Plazoleta",
      "@geometry": "center"
    }
  },
  {
    "id": "way/45122813",
    "lat": -28.4626747,
    "lon": -65.7742277,
    "name": "Plazoleta Alto Parana",
    "categoria": "otro",
    "extra": {
      "@id": "way/45122813",
      "leisure": "park",
      "name": "Plazoleta Alto Parana",
      "@geometry": "center"
    }
  },
  {
    "id": "way/45558670",
    "lat": -28.4578593,
    "lon": -65.7962008,
    "name": "Plaza Heroes de Malvinas",
    "categoria": "otro",
    "extra": {
      "@id": "way/45558670",
      "leisure": "park",
      "name": "Plaza Heroes de Malvinas",
      "@geometry": "center"
    }
  },
  {
    "id": "way/46256594",
    "lat": -27.567391,
    "lon": -68.536558,
    "name": "Laguna Azul",
    "categoria": "water",
    "extra": {
      "@id": "way/46256594",
      "name": "Laguna Azul",
      "natural": "water",
      "water": "lake",
      "@geometry": "center"
    }
  },
  {
    "id": "way/46256828",
    "lat": -27.6921651,
    "lon": -67.6189238,
    "name": "Plaza Fray Mamerto Esquiú",
    "categoria": "otro",
    "extra": {
      "@id": "way/46256828",
      "leisure": "park",
      "name": "Plaza Fray Mamerto Esquiú",
      "@geometry": "center"
    }
  },
  {
    "id": "way/47704070",
    "lat": -28.0655135,
    "lon": -67.5644463,
    "name": "Plaza de Tinogasta",
    "categoria": "otro",
    "extra": {
      "@id": "way/47704070",
      "leisure": "park",
      "name": "Plaza de Tinogasta",
      "@geometry": "center"
    }
  },
  {
    "id": "way/49062137",
    "lat": -28.4423529,
    "lon": -65.7686946,
    "name": "Plaza de las Américas",
    "categoria": "otro",
    "extra": {
      "@id": "way/49062137",
      "leisure": "park",
      "name": "Plaza de las Américas",
      "@geometry": "center"
    }
  },
  {
    "id": "way/51318547",
    "lat": -27.330244,
    "lon": -66.562466,
    "name": "Dique de Minera Alumbrera",
    "categoria": "water",
    "extra": {
      "@id": "way/51318547",
      "man_made": "reservoir",
      "name": "Dique de Minera Alumbrera",
      "natural": "water",
      "@geometry": "center"
    }
  },
  {
    "id": "way/51343615",
    "lat": -26.356813,
    "lon": -66.8076493,
    "name": "Laguna Escondida",
    "categoria": "water",
    "extra": {
      "@id": "way/51343615",
      "name": "Laguna Escondida",
      "natural": "water",
      "water": "lake",
      "@geometry": "center"
    }
  },
  {
    "id": "way/51351011",
    "lat": -26.2411465,
    "lon": -66.9783005,
    "name": "Laguna Baya",
    "categoria": "water",
    "extra": {
      "@id": "way/51351011",
      "intermittent": "yes",
      "name": "Laguna Baya",
      "natural": "water",
      "water": "lake",
      "wikidata": "Q21846267",
      "@geometry": "center"
    }
  },
  {
    "id": "way/51351012",
    "lat": -26.2409333,
    "lon": -67.063297,
    "name": "Laguna Grande",
    "categoria": "water",
    "extra": {
      "@id": "way/51351012",
      "intermittent": "yes",
      "name": "Laguna Grande",
      "name:source": "IGN",
      "natural": "water",
      "wikidata": "Q21840027",
      "@geometry": "center"
    }
  },
  {
    "id": "way/51351061",
    "lat": -26.2159158,
    "lon": -67.0804576,
    "name": "Laguna",
    "categoria": "water",
    "extra": {
      "@id": "way/51351061",
      "intermittent": "yes",
      "name": "Laguna",
      "name:source": "IGN",
      "natural": "water",
      "water": "lake",
      "@geometry": "center"
    }
  },
  {
    "id": "way/51353832",
    "lat": -26.1078245,
    "lon": -66.7335333,
    "name": "Laguna",
    "categoria": "water",
    "extra": {
      "@id": "way/51353832",
      "intermittent": "yes",
      "name": "Laguna",
      "natural": "water",
      "source:name": "IGN",
      "@geometry": "center"
    }
  },
  {
    "id": "way/51357571",
    "lat": -26.9021802,
    "lon": -67.728399,
    "name": "Laguna Aguada Alumbrera",
    "categoria": "water",
    "extra": {
      "@id": "way/51357571",
      "intermittent": "yes",
      "name": "Laguna Aguada Alumbrera",
      "natural": "water",
      "water": "lake",
      "@geometry": "center"
    }
  },
  {
    "id": "way/51357672",
    "lat": -26.1096826,
    "lon": -67.396857,
    "name": "Laguna de Antofagasta",
    "categoria": "water",
    "extra": {
      "@id": "way/51357672",
      "alt_name": "Laguna Alumbrera",
      "name": "Laguna de Antofagasta",
      "natural": "water",
      "wikidata": "Q16589013",
      "wikipedia": "es:Laguna Antofagasta",
      "@geometry": "center"
    }
  },
  {
    "id": "way/51724119",
    "lat": -28.4859895,
    "lon": -65.7940092,
    "name": "Plaza Tinkunaku",
    "categoria": "otro",
    "extra": {
      "@id": "way/51724119",
      "leisure": "park",
      "name": "Plaza Tinkunaku",
      "@geometry": "center"
    }
  },
  {
    "id": "way/55761518",
    "lat": -28.4585318,
    "lon": -65.7891872,
    "name": "Paseo del Milenio",
    "categoria": "otro",
    "extra": {
      "@id": "way/55761518",
      "leisure": "park",
      "name": "Paseo del Milenio",
      "@geometry": "center"
    }
  },
  {
    "id": "way/67282778",
    "lat": -28.4579832,
    "lon": -65.8086174,
    "name": "Plaza del Combatiente de Incendios Forestales",
    "categoria": "otro",
    "extra": {
      "@id": "way/67282778",
      "leisure": "park",
      "name": "Plaza del Combatiente de Incendios Forestales",
      "@geometry": "center"
    }
  },
  {
    "id": "way/68830516",
    "lat": -28.4638075,
    "lon": -65.7638218,
    "name": "Plaza 5 de Julio",
    "categoria": "otro",
    "extra": {
      "@id": "way/68830516",
      "leisure": "park",
      "name": "Plaza 5 de Julio",
      "@geometry": "center"
    }
  },
  {
    "id": "way/69178118",
    "lat": -28.4829776,
    "lon": -65.7774758,
    "name": "Plazoleta Del Sur",
    "categoria": "otro",
    "extra": {
      "@id": "way/69178118",
      "leisure": "park",
      "name": "Plazoleta Del Sur",
      "@geometry": "center"
    }
  },
  {
    "id": "way/69693772",
    "lat": -28.5079273,
    "lon": -65.9540521,
    "name": "Plaza de Los Ángeles",
    "categoria": "otro",
    "extra": {
      "@id": "way/69693772",
      "leisure": "park",
      "name": "Plaza de Los Ángeles",
      "@geometry": "center"
    }
  },
  {
    "id": "way/82668454",
    "lat": -28.4673199,
    "lon": -65.7635999,
    "name": "Plaza Felix Nazar",
    "categoria": "otro",
    "extra": {
      "@id": "way/82668454",
      "leisure": "park",
      "name": "Plaza Felix Nazar",
      "@geometry": "center"
    }
  },
  {
    "id": "way/86091972",
    "lat": -28.4595491,
    "lon": -65.7695681,
    "name": "Plaza Luis Varela Lezana",
    "categoria": "otro",
    "extra": {
      "@id": "way/86091972",
      "leisure": "park",
      "name": "Plaza Luis Varela Lezana",
      "@geometry": "center"
    }
  },
  {
    "id": "way/88758632",
    "lat": -28.4670141,
    "lon": -65.8322219,
    "name": "Pueblo Perdido de la Quebrada",
    "categoria": "attraction",
    "extra": {
      "@id": "way/88758632",
      "archaeological_site": "settlement",
      "historic": "archaeological_site",
      "historic:civilization": "prehispanic",
      "name": "Pueblo Perdido de la Quebrada",
      "source_ref": "http://www.diarioc.com.ar/turismo/El_Pueblo_Perdido_un_viaje_al_pasado_aborigen/124287",
      "tourism": "attraction",
      "website": "https://sfvc.tur.ar/pueblo-perdido-de-la-quebrada/",
      "@geometry": "center"
    }
  },
  {
    "id": "way/88758633",
    "lat": -28.4599097,
    "lon": -65.8421862,
    "name": "El Calvario",
    "categoria": "place_of_worship",
    "extra": {
      "@id": "way/88758633",
      "amenity": "place_of_worship",
      "name": "El Calvario",
      "religion": "christian",
      "@geometry": "center"
    }
  },
  {
    "id": "way/89184266",
    "lat": -27.6989593,
    "lon": -67.1652861,
    "name": "Lago El Molino",
    "categoria": "water",
    "extra": {
      "@id": "way/89184266",
      "name": "Lago El Molino",
      "natural": "water",
      "@geometry": "center"
    }
  },
  {
    "id": "way/91011888",
    "lat": -28.0595807,
    "lon": -66.1897608,
    "name": "Estanque",
    "categoria": "water",
    "extra": {
      "@id": "way/91011888",
      "name": "Estanque",
      "natural": "water",
      "@geometry": "center"
    }
  },
  {
    "id": "way/92170588",
    "lat": -28.1914716,
    "lon": -65.7852096,
    "name": "Cabañas Los Alpinos",
    "categoria": "camp_site",
    "extra": {
      "@id": "way/92170588",
      "email": "info@losalpinos.com.ar",
      "name": "Cabañas Los Alpinos",
      "note": "Sr. Romero",
      "phone": "+54-383 442 1556",
      "phone:mobile": "+54 9 383 468 4946",
      "tourism": "camp_site",
      "website": "http://www.losalpinos.com.ar",
      "@geometry": "center"
    }
  },
  {
    "id": "node/96183409",
    "lat": -27.1596805,
    "lon": -68.6338264,
    "name": "Grillos",
    "categoria": "peak",
    "extra": {
      "@id": "node/96183409",
      "ele": "5763",
      "name": "Grillos",
      "natural": "peak"
    }
  },
  {
    "id": "node/96183478",
    "lat": -27.150814,
    "lon": -68.6374313,
    "name": "Co. Arrieros",
    "categoria": "peak",
    "extra": {
      "@id": "node/96183478",
      "ele": "5886",
      "name": "Co. Arrieros",
      "natural": "peak"
    }
  },
  {
    "id": "node/96183928",
    "lat": -27.1462916,
    "lon": -68.8168305,
    "name": "Hito XV-11 A",
    "categoria": "otro",
    "extra": {
      "@id": "node/96183928",
      "ele": "5552",
      "historic": "boundary_stone",
      "name": "Hito XV-11 A",
      "ref": "XV-11A"
    }
  },
  {
    "id": "node/96184070",
    "lat": -25.4276695,
    "lon": -68.5864784,
    "name": "Hito XVI-5 A",
    "categoria": "otro",
    "extra": {
      "@id": "node/96184070",
      "historic": "boundary_stone",
      "name": "Hito XVI-5 A",
      "ref": "XVI-5A"
    }
  },
  {
    "id": "node/96184120",
    "lat": -27.1526342,
    "lon": -68.8069707,
    "name": "Cerro Puntiagudo y Lamas",
    "categoria": "peak",
    "extra": {
      "@id": "node/96184120",
      "ele": "5960",
      "name": "Cerro Puntiagudo y Lamas",
      "natural": "peak"
    }
  },
  {
    "id": "node/96184721",
    "lat": -27.1364626,
    "lon": -68.6551124,
    "name": "Arrieros / Chullo Bayo",
    "categoria": "peak",
    "extra": {
      "@id": "node/96184721",
      "ele": "5895",
      "name": "Arrieros / Chullo Bayo",
      "natural": "peak"
    }
  },
  {
    "id": "node/96185082",
    "lat": -27.1037584,
    "lon": -68.6686737,
    "name": "Pedregoso",
    "categoria": "peak",
    "extra": {
      "@id": "node/96185082",
      "ele": "5665",
      "name": "Pedregoso",
      "natural": "peak"
    }
  },
  {
    "id": "node/96185123",
    "lat": -26.2871033,
    "lon": -68.5575358,
    "name": "Cerro Tridente",
    "categoria": "peak",
    "extra": {
      "@id": "node/96185123",
      "ele": "5416",
      "name": "Cerro Tridente",
      "natural": "peak",
      "wikidata": "Q22472693"
    }
  },
  {
    "id": "node/96185202",
    "lat": -25.2985069,
    "lon": -68.5457747,
    "name": "Cerro Atalaya",
    "categoria": "peak",
    "extra": {
      "@id": "node/96185202",
      "ele": "5428",
      "name": "Cerro Atalaya",
      "natural": "peak",
      "source": "http://bcn.cl/ymm",
      "wikidata": "Q21845918"
    }
  },
  {
    "id": "node/96186397",
    "lat": -26.813873,
    "lon": -68.3479455,
    "name": "Cumbre de la Línea",
    "categoria": "peak",
    "extra": {
      "@id": "node/96186397",
      "ele": "5824",
      "name": "Cumbre de la Línea",
      "natural": "peak",
      "source": "Informe Arbitral de 19 de noviembre de 1902",
      "wikidata": "Q21838874"
    }
  },
  {
    "id": "node/96186755",
    "lat": -26.4929356,
    "lon": -68.5873359,
    "name": "Sierra Nevada de Lagunas Bravas",
    "categoria": "peak",
    "extra": {
      "@id": "node/96186755",
      "alt_name": "Sierra Nevada",
      "ele": "6127",
      "name": "Sierra Nevada de Lagunas Bravas",
      "natural": "peak",
      "wikidata": "Q422879",
      "wikipedia": "es:Sierra Nevada de Lagunas Bravas"
    }
  },
  {
    "id": "way/103541587",
    "lat": -27.9314744,
    "lon": -65.8719737,
    "name": "Los Varela",
    "categoria": "otro",
    "extra": {
      "@id": "way/103541587",
      "leisure": "park",
      "name": "Los Varela",
      "@geometry": "center"
    }
  },
  {
    "id": "way/103601152",
    "lat": -29.278739,
    "lon": -65.0586841,
    "name": "Plaza 25 de Mayo",
    "categoria": "otro",
    "extra": {
      "@id": "way/103601152",
      "leisure": "park",
      "name": "Plaza 25 de Mayo",
      "@geometry": "center"
    }
  },
  {
    "id": "way/110897318",
    "lat": -29.0374457,
    "lon": -65.3688911,
    "name": "Dique Motegasta",
    "categoria": "water",
    "extra": {
      "@id": "way/110897318",
      "name": "Dique Motegasta",
      "natural": "water",
      "@geometry": "center"
    }
  },
  {
    "id": "way/111989334",
    "lat": -28.4734909,
    "lon": -65.7651036,
    "name": "Plaza Bella Vista",
    "categoria": "otro",
    "extra": {
      "@id": "way/111989334",
      "leisure": "park",
      "name": "Plaza Bella Vista",
      "@geometry": "center"
    }
  },
  {
    "id": "way/121044227",
    "lat": -28.4570865,
    "lon": -65.727484,
    "name": "Plazoleta de la Ermita de Nuestra Señora del Valle",
    "categoria": "otro",
    "extra": {
      "@id": "way/121044227",
      "leisure": "park",
      "name": "Plazoleta de la Ermita de Nuestra Señora del Valle",
      "@geometry": "center"
    }
  },
  {
    "id": "way/121707436",
    "lat": -29.2739757,
    "lon": -65.0630298,
    "name": "Plazoleta Gastón",
    "categoria": "otro",
    "extra": {
      "@id": "way/121707436",
      "leisure": "park",
      "name": "Plazoleta Gastón",
      "@geometry": "center"
    }
  },
  {
    "id": "way/131635763",
    "lat": -28.4794346,
    "lon": -65.7986852,
    "name": "Plazoleta Barrio Policial",
    "categoria": "otro",
    "extra": {
      "@id": "way/131635763",
      "leisure": "park",
      "name": "Plazoleta Barrio Policial",
      "@geometry": "center"
    }
  },
  {
    "id": "way/132330036",
    "lat": -28.4667296,
    "lon": -65.8054418,
    "name": "Apumayta",
    "categoria": "otro",
    "extra": {
      "@id": "way/132330036",
      "leisure": "park",
      "name": "Apumayta",
      "@geometry": "center"
    }
  },
  {
    "id": "way/132330037",
    "lat": -28.466875,
    "lon": -65.807482,
    "name": "Wayta",
    "categoria": "otro",
    "extra": {
      "@id": "way/132330037",
      "leisure": "park",
      "name": "Wayta",
      "@geometry": "center"
    }
  },
  {
    "id": "way/132330038",
    "lat": -28.4655424,
    "lon": -65.8075927,
    "name": "Illawara",
    "categoria": "otro",
    "extra": {
      "@id": "way/132330038",
      "leisure": "park",
      "name": "Illawara",
      "@geometry": "center"
    }
  },
  {
    "id": "way/132330041",
    "lat": -28.4654045,
    "lon": -65.8055428,
    "name": "Inti",
    "categoria": "otro",
    "extra": {
      "@id": "way/132330041",
      "leisure": "park",
      "name": "Inti",
      "@geometry": "center"
    }
  },
  {
    "id": "way/137585557",
    "lat": -28.4686816,
    "lon": -65.7805987,
    "name": "Museo de la Virgen del Valle",
    "categoria": "museum",
    "extra": {
      "@id": "way/137585557",
      "addr:city": "San Fernando del Valle de Catamarca",
      "addr:housenumber": "449",
      "addr:street": "República",
      "building": "yes",
      "fee": "no",
      "museum": "religious",
      "name": "Museo de la Virgen del Valle",
      "opening_hours": "Mo-Fr 09:00-21:00; PH 10:00-12:00; Sa 08:00-12:00",
      "operator": "Municipalidad de San Fernando del Valle de Catamarca",
      "operator:type": "public",
      "tourism": "museum",
      "website": "https://www.catamarcaciudad.gob.ar/museo-de-la-virgen-del-valle/",
      "wikidata": "Q111972505",
      "@geometry": "center"
    }
  },
  {
    "id": "way/137600155",
    "lat": -28.4675786,
    "lon": -65.7796197,
    "name": "Hotel Arenales",
    "categoria": "hotel",
    "extra": {
      "@id": "way/137600155",
      "addr:city": "San Fernando del Valle de Catamarca",
      "addr:housenumber": "542",
      "addr:postcode": "K4700EML",
      "addr:street": "Sarmiento",
      "building": "yes",
      "building:levels": "6",
      "is_in": "Catamarca",
      "name": "Hotel Arenales",
      "phone": "+54-03833 43-0307",
      "stars": "3",
      "tourism": "hotel",
      "@geometry": "center"
    }
  },
  {
    "id": "way/137600208",
    "lat": -28.4674134,
    "lon": -65.779418,
    "name": "Hotel Ancasti",
    "categoria": "hotel",
    "extra": {
      "@id": "way/137600208",
      "addr:city": "San Fernando del Valle de Catamarca",
      "addr:housenumber": "520",
      "addr:postcode": "K4700EML",
      "addr:street": "Sarmiento",
      "building": "yes",
      "building:levels": "6",
      "height": "18",
      "is_in": "Catamarca",
      "name": "Hotel Ancasti",
      "phone": "+5403833 43-0617",
      "stars": "4",
      "tourism": "hotel",
      "@geometry": "center"
    }
  },
  {
    "id": "way/137615233",
    "lat": -28.4775939,
    "lon": -65.7867132,
    "name": "Plaza Raúl Alfonsín",
    "categoria": "otro",
    "extra": {
      "@id": "way/137615233",
      "addr:city": "San Fernando del Valle de Catamarca",
      "addr:street": "Avenida Güemes Oeste",
      "alt_name": "Parque Urbano Raúl Ricardo Alfonsín",
      "leisure": "park",
      "name": "Plaza Raúl Alfonsín",
      "official_name": "Plaza Doctor Raúl Ricardo Alfonsín",
      "old_name": "Servicio Penitenciario Provincial",
      "operator": "Municipalidad de San Fernando del Valle de Catamarca",
      "operator:type": "public",
      "@geometry": "center"
    }
  },
  {
    "id": "way/137901458",
    "lat": -28.4814391,
    "lon": -65.7845264,
    "name": "Parroquia San Jose Obrero",
    "categoria": "place_of_worship",
    "extra": {
      "@id": "way/137901458",
      "amenity": "place_of_worship",
      "building": "church",
      "denomination": "roman_catholic",
      "name": "Parroquia San Jose Obrero",
      "religion": "christian",
      "@geometry": "center"
    }
  },
  {
    "id": "way/137919577",
    "lat": -28.4687082,
    "lon": -65.7873627,
    "name": "Grand Hotel",
    "categoria": "hotel",
    "extra": {
      "@id": "way/137919577",
      "addr:city": "San Fernando del Valle de Catamarca",
      "addr:housenumber": "41",
      "addr:postcode": "4700",
      "addr:street": "Camilo Melet",
      "building": "yes",
      "email": "grandhotel@arnetbiz.com.ar",
      "name": "Grand Hotel",
      "phone": "+54 383 442-6715",
      "stars": "3",
      "tourism": "hotel",
      "website": "www.grandhotelcatamarca.com.ar",
      "@geometry": "center"
    }
  },
  {
    "id": "way/137944228",
    "lat": -28.4675852,
    "lon": -65.7802198,
    "name": "Hotel Suma Huasi",
    "categoria": "hotel",
    "extra": {
      "@id": "way/137944228",
      "addr:city": "San Fernando del Valle de Catamarca",
      "addr:housenumber": "547",
      "addr:postcode": "K4700EMK",
      "addr:street": "Sarmiento",
      "beds": "96",
      "building": "yes",
      "building:levels": "2",
      "contact:facebook": "https://www.facebook.com/hotelsumahuasi",
      "email": "hotelsumahuasi@hotmail.com",
      "name": "Hotel Suma Huasi",
      "phone": "+54 383 444-6484",
      "rooms": "35",
      "stars": "2",
      "tourism": "hotel",
      "website": "https://hotelsumahuasi.com/",
      "@geometry": "center"
    }
  },
  {
    "id": "way/137963929",
    "lat": -28.4647809,
    "lon": -65.7867237,
    "name": "Iglesia de Santa Rosa de Lima",
    "categoria": "place_of_worship",
    "extra": {
      "@id": "way/137963929",
      "amenity": "place_of_worship",
      "building": "church",
      "denomination": "roman_catholic",
      "name": "Iglesia de Santa Rosa de Lima",
      "religion": "christian",
      "@geometry": "center"
    }
  },
  {
    "id": "way/138037037",
    "lat": -28.4676117,
    "lon": -65.7738305,
    "name": "Iglesia Universal",
    "categoria": "place_of_worship",
    "extra": {
      "@id": "way/138037037",
      "amenity": "place_of_worship",
      "building": "yes",
      "building:levels": "2",
      "denomination": "evangelical",
      "name": "Iglesia Universal",
      "religion": "christian",
      "@geometry": "center"
    }
  },
  {
    "id": "way/138127852",
    "lat": -28.4756098,
    "lon": -65.7754216,
    "name": "Coral Hotel",
    "categoria": "hotel",
    "extra": {
      "@id": "way/138127852",
      "addr:city": "San Fernando del Valle de Catamarca",
      "addr:housenumber": "1179",
      "addr:street": "Tucumán",
      "beds": "251",
      "building": "yes",
      "building:levels": "5",
      "contact:facebook": "https://www.facebook.com/coralhotelcatamarca",
      "internet_access": "wlan",
      "name": "Coral Hotel",
      "phone": "+54 383 445-4674;+54 9 383 429-1912;+54 383 418-4889",
      "rooms": "83",
      "stars": "3",
      "tourism": "hotel",
      "@geometry": "center"
    }
  },
  {
    "id": "way/138184102",
    "lat": -28.4687853,
    "lon": -65.7819866,
    "name": "Amerian Catamarca Park Hotel",
    "categoria": "hotel",
    "extra": {
      "@id": "way/138184102",
      "addr:city": "San Fernando del Valle de Catamarca",
      "addr:housenumber": "347",
      "addr:postcode": "4700",
      "addr:street": "República",
      "brand": "Amerian",
      "building": "yes",
      "building:levels": "8",
      "name": "Amerian Catamarca Park Hotel",
      "phone": "+54 383 442-5444",
      "stars": "4",
      "tourism": "hotel",
      "@geometry": "center"
    }
  },
  {
    "id": "way/138646245",
    "lat": -28.4775181,
    "lon": -65.7996943,
    "name": "Plazoleta La Carreta",
    "categoria": "otro",
    "extra": {
      "@id": "way/138646245",
      "leisure": "park",
      "name": "Plazoleta La Carreta",
      "@geometry": "center"
    }
  },
  {
    "id": "way/138646384",
    "lat": -28.4784992,
    "lon": -65.7996255,
    "name": "Plazoleta Sagrada Familia",
    "categoria": "otro",
    "extra": {
      "@id": "way/138646384",
      "leisure": "park",
      "name": "Plazoleta Sagrada Familia",
      "@geometry": "center"
    }
  },
  {
    "id": "way/139038332",
    "lat": -28.4552518,
    "lon": -65.7777751,
    "name": "Plaza San Jose Obrero",
    "categoria": "otro",
    "extra": {
      "@id": "way/139038332",
      "leisure": "park",
      "name": "Plaza San Jose Obrero",
      "@geometry": "center"
    }
  },
  {
    "id": "way/139039277",
    "lat": -28.451845,
    "lon": -65.7826607,
    "name": "Plazoleta \"Los Aviadores\"",
    "categoria": "otro",
    "extra": {
      "@id": "way/139039277",
      "leisure": "park",
      "name": "Plazoleta \"Los Aviadores\"",
      "@geometry": "center"
    }
  },
  {
    "id": "way/139855217",
    "lat": -28.4813029,
    "lon": -65.7972919,
    "name": "Plaza 20 de Junio",
    "categoria": "otro",
    "extra": {
      "@id": "way/139855217",
      "leisure": "park",
      "name": "Plaza 20 de Junio",
      "@geometry": "center"
    }
  },
  {
    "id": "way/156072080",
    "lat": -26.6945665,
    "lon": -66.0480932,
    "name": "Plaza General Manuel Belgrano",
    "categoria": "otro",
    "extra": {
      "@id": "way/156072080",
      "leisure": "park",
      "name": "Plaza General Manuel Belgrano",
      "note": "Plaza General Belgrano (Plaza Central)",
      "@geometry": "center"
    }
  },
  {
    "id": "way/157278714",
    "lat": -28.4747012,
    "lon": -65.8046603,
    "name": "Circuito de la Vida Achachay",
    "categoria": "otro",
    "extra": {
      "@id": "way/157278714",
      "leisure": "park",
      "name": "Circuito de la Vida Achachay",
      "@geometry": "center"
    }
  },
  {
    "id": "way/160544418",
    "lat": -25.5606432,
    "lon": -67.2924177,
    "name": "Laguna de Caro",
    "categoria": "water",
    "extra": {
      "@id": "way/160544418",
      "name": "Laguna de Caro",
      "natural": "water",
      "salt": "yes",
      "@geometry": "center"
    }
  },
  {
    "id": "way/162887089",
    "lat": -27.6883292,
    "lon": -67.1801796,
    "name": "Shincal de Quimivil",
    "categoria": "otro",
    "extra": {
      "@id": "way/162887089",
      "alt_name": "El Shincal",
      "archaeological_site": "settlement",
      "contact:facebook": "https://www.facebook.com/elshincaldequimivill",
      "description": "horarios de atención: 8, 9, 11, 16, 17:30, 19h",
      "historic": "archaeological_site",
      "name": "Shincal de Quimivil",
      "wikidata": "Q951509",
      "wikipedia": "es:Shincal",
      "@geometry": "center"
    }
  },
  {
    "id": "way/165502373",
    "lat": -28.6455193,
    "lon": -65.8934645,
    "name": "FB Meditazen",
    "categoria": "place_of_worship",
    "extra": {
      "@id": "way/165502373",
      "amenity": "place_of_worship",
      "description": "Fundación Bienaventuranza. Maestro Amor",
      "is_in:state": "Catamarca",
      "name": "FB Meditazen",
      "note": "Maestro Amor \"Meditazen\"",
      "@geometry": "center"
    }
  },
  {
    "id": "way/166291855",
    "lat": -28.4649847,
    "lon": -65.7287866,
    "name": "Estanque INTA",
    "categoria": "water",
    "extra": {
      "@id": "way/166291855",
      "name": "Estanque INTA",
      "natural": "water",
      "water": "lake",
      "@geometry": "center"
    }
  },
  {
    "id": "way/171887876",
    "lat": -29.2725237,
    "lon": -65.061153,
    "name": "Plazoleta Virgen del Valle",
    "categoria": "otro",
    "extra": {
      "@id": "way/171887876",
      "leisure": "park",
      "name": "Plazoleta Virgen del Valle",
      "@geometry": "center"
    }
  },
  {
    "id": "way/192163235",
    "lat": -28.4860192,
    "lon": -65.7804415,
    "name": "Parroquia San Nicolás de Bari",
    "categoria": "place_of_worship",
    "extra": {
      "@id": "way/192163235",
      "addr:housenumber": "455",
      "addr:street": "San Nicolás de Bari",
      "amenity": "place_of_worship",
      "building": "yes",
      "denomination": "catholic",
      "name": "Parroquia San Nicolás de Bari",
      "religion": "christian",
      "@geometry": "center"
    }
  },
  {
    "id": "way/202761321",
    "lat": -27.5477245,
    "lon": -66.3266536,
    "name": "Plaza de Chaquiago",
    "categoria": "otro",
    "extra": {
      "@id": "way/202761321",
      "leisure": "park",
      "name": "Plaza de Chaquiago",
      "@geometry": "center"
    }
  },
  {
    "id": "way/204421164",
    "lat": -29.2796216,
    "lon": -65.0621965,
    "name": "Salón del Bicentenario",
    "categoria": "attraction",
    "extra": {
      "@id": "way/204421164",
      "name": "Salón del Bicentenario",
      "tourism": "attraction",
      "@geometry": "center"
    }
  },
  {
    "id": "way/204427030",
    "lat": -29.272792,
    "lon": -65.0606035,
    "name": "Plazoleta Puqui Gonzales",
    "categoria": "otro",
    "extra": {
      "@id": "way/204427030",
      "leisure": "park",
      "name": "Plazoleta Puqui Gonzales",
      "@geometry": "center"
    }
  },
  {
    "id": "way/204433431",
    "lat": -29.2777479,
    "lon": -65.0550459,
    "name": "Parroquia San Roque",
    "categoria": "place_of_worship",
    "extra": {
      "@id": "way/204433431",
      "amenity": "place_of_worship",
      "building": "yes",
      "name": "Parroquia San Roque",
      "religion": "christian",
      "@geometry": "center"
    }
  },
  {
    "id": "way/204434402",
    "lat": -29.2780267,
    "lon": -65.056612,
    "name": "Plazoleta de Los Niños",
    "categoria": "otro",
    "extra": {
      "@id": "way/204434402",
      "leisure": "park",
      "name": "Plazoleta de Los Niños",
      "@geometry": "center"
    }
  },
  {
    "id": "way/204438722",
    "lat": -29.2869701,
    "lon": -65.0623513,
    "name": "Camping Municipal La Colonia",
    "categoria": "otro",
    "extra": {
      "@id": "way/204438722",
      "leisure": "park",
      "name": "Camping Municipal La Colonia",
      "@geometry": "center"
    }
  },
  {
    "id": "way/204440335",
    "lat": -29.2763134,
    "lon": -65.060985,
    "name": "Hotel Tula",
    "categoria": "hotel",
    "extra": {
      "@id": "way/204440335",
      "addr:city": "Recreo",
      "addr:postcode": "5260",
      "addr:street": "Pueyrredón",
      "contact:facebook": "https://www.facebook.com/TULA-HOTEL-537466666355594/",
      "name": "Hotel Tula",
      "tourism": "hotel",
      "@geometry": "center"
    }
  },
  {
    "id": "way/204440458",
    "lat": -29.277666,
    "lon": -65.0578032,
    "name": "Hotel Sarmiento",
    "categoria": "hotel",
    "extra": {
      "@id": "way/204440458",
      "addr:city": "Recreo",
      "addr:postcode": "5260",
      "addr:street": "Domingo F. Sarmiento",
      "name": "Hotel Sarmiento",
      "tourism": "hotel",
      "@geometry": "center"
    }
  },
  {
    "id": "way/204440541",
    "lat": -29.2755131,
    "lon": -65.0589887,
    "name": "Hotel Rivadavia",
    "categoria": "hotel",
    "extra": {
      "@id": "way/204440541",
      "addr:city": "Recreo",
      "addr:housenumber": "35",
      "addr:postcode": "K5260CZA",
      "addr:street": "Bulevard Rivadavia",
      "beds": "38",
      "contact:facebook": "https://www.facebook.com/RivadaviaHotel/",
      "email": "info.hotelrivadavia@gmail.com",
      "name": "Hotel Rivadavia",
      "phone": "+54 3832 42-7878;+54 9 3832 46-0918",
      "rooms": "12",
      "tourism": "hotel",
      "website": "https://hotelrivadavia.com.ar/",
      "@geometry": "center"
    }
  },
  {
    "id": "way/204685538",
    "lat": -29.276079,
    "lon": -65.0578098,
    "name": "Casa de La Cultura",
    "categoria": "attraction",
    "extra": {
      "@id": "way/204685538",
      "name": "Casa de La Cultura",
      "tourism": "attraction",
      "@geometry": "center"
    }
  },
  {
    "id": "way/204687531",
    "lat": -29.2753699,
    "lon": -65.0524173,
    "name": "Cristo Redentor",
    "categoria": "attraction",
    "extra": {
      "@id": "way/204687531",
      "name": "Cristo Redentor",
      "tourism": "attraction",
      "@geometry": "center"
    }
  },
  {
    "id": "way/205110007",
    "lat": -29.2705323,
    "lon": -65.057363,
    "name": "Capilla San Cayetano",
    "categoria": "place_of_worship",
    "extra": {
      "@id": "way/205110007",
      "amenity": "place_of_worship",
      "name": "Capilla San Cayetano",
      "religion": "christian",
      "@geometry": "center"
    }
  },
  {
    "id": "way/205110436",
    "lat": -29.2843697,
    "lon": -65.0550574,
    "name": "Capilla",
    "categoria": "place_of_worship",
    "extra": {
      "@id": "way/205110436",
      "amenity": "place_of_worship",
      "name": "Capilla",
      "religion": "christian",
      "@geometry": "center"
    }
  },
  {
    "id": "way/205110612",
    "lat": -29.2760058,
    "lon": -65.0618853,
    "name": "Capilla San José",
    "categoria": "place_of_worship",
    "extra": {
      "@id": "way/205110612",
      "amenity": "place_of_worship",
      "name": "Capilla San José",
      "religion": "christian",
      "@geometry": "center"
    }
  },
  {
    "id": "way/205111776",
    "lat": -29.2787334,
    "lon": -65.0561728,
    "name": "Integrador Carlos Perdiguero",
    "categoria": "otro",
    "extra": {
      "@id": "way/205111776",
      "leisure": "park",
      "name": "Integrador Carlos Perdiguero",
      "@geometry": "center"
    }
  },
  {
    "id": "way/205111965",
    "lat": -29.2789497,
    "lon": -65.0576284,
    "name": "Plazoleta de la Madre",
    "categoria": "otro",
    "extra": {
      "@id": "way/205111965",
      "leisure": "park",
      "name": "Plazoleta de la Madre",
      "@geometry": "center"
    }
  },
  {
    "id": "way/206341539",
    "lat": -29.2716994,
    "lon": -65.0557703,
    "name": "Tu Recreo",
    "categoria": "hotel",
    "extra": {
      "@id": "way/206341539",
      "addr:city": "Recreo",
      "addr:postcode": "5260",
      "addr:street": "Ruta Nacional 157",
      "name": "Tu Recreo",
      "tourism": "hotel",
      "@geometry": "center"
    }
  },
  {
    "id": "way/206559240",
    "lat": -27.5534075,
    "lon": -66.3020133,
    "name": "Camping Municipal La Aguada",
    "categoria": "camp_site",
    "extra": {
      "@id": "way/206559240",
      "name": "Camping Municipal La Aguada",
      "tourism": "camp_site",
      "@geometry": "center"
    }
  },
  {
    "id": "way/206559241",
    "lat": -27.5463578,
    "lon": -66.3246096,
    "name": "Camping Municipal Chaquiago",
    "categoria": "picnic_site",
    "extra": {
      "@id": "way/206559241",
      "name": "Camping Municipal Chaquiago",
      "tourism": "picnic_site",
      "@geometry": "center"
    }
  },
  {
    "id": "way/207233920",
    "lat": -28.1737627,
    "lon": -66.2113983,
    "name": "Plaza Juan Cayetano Bianchi",
    "categoria": "otro",
    "extra": {
      "@id": "way/207233920",
      "leisure": "park",
      "name": "Plaza Juan Cayetano Bianchi",
      "@geometry": "center"
    }
  },
  {
    "id": "way/207402851",
    "lat": -28.1787117,
    "lon": -66.2012877,
    "name": "Estanque municipal",
    "categoria": "water",
    "extra": {
      "@id": "way/207402851",
      "name": "Estanque municipal",
      "natural": "water",
      "water": "pond",
      "@geometry": "center"
    }
  },
  {
    "id": "way/211028751",
    "lat": -27.1568241,
    "lon": -66.7564259,
    "name": "Camping Municpal Thermas los Nascimentos",
    "categoria": "camp_site",
    "extra": {
      "@id": "way/211028751",
      "name": "Camping Municpal Thermas los Nascimentos",
      "tourism": "camp_site",
      "@geometry": "center"
    }
  },
  {
    "id": "way/211283888",
    "lat": -28.176469,
    "lon": -67.4881592,
    "name": "Plaza Jesús de Nazaret",
    "categoria": "otro",
    "extra": {
      "@id": "way/211283888",
      "leisure": "park",
      "name": "Plaza Jesús de Nazaret",
      "@geometry": "center"
    }
  },
  {
    "id": "way/211824770",
    "lat": -28.8125999,
    "lon": -65.5006789,
    "name": "Plaza Ramón S. Castillo",
    "categoria": "otro",
    "extra": {
      "@id": "way/211824770",
      "leisure": "park",
      "name": "Plaza Ramón S. Castillo",
      "@geometry": "center"
    }
  },
  {
    "id": "way/212101214",
    "lat": -28.4690943,
    "lon": -65.8113285,
    "name": "Plaza Los Morteros",
    "categoria": "otro",
    "extra": {
      "@id": "way/212101214",
      "leisure": "park",
      "name": "Plaza Los Morteros",
      "source": "municipalidad",
      "@geometry": "center"
    }
  },
  {
    "id": "way/212170281",
    "lat": -28.4526993,
    "lon": -65.7447075,
    "name": "Plaza La Cruz Negra",
    "categoria": "otro",
    "extra": {
      "@id": "way/212170281",
      "leisure": "park",
      "name": "Plaza La Cruz Negra",
      "@geometry": "center"
    }
  },
  {
    "id": "way/212175384",
    "lat": -28.4534826,
    "lon": -65.7566628,
    "name": "Plaza Luis \"Quique\" Sánchez Vera",
    "categoria": "otro",
    "extra": {
      "@id": "way/212175384",
      "leisure": "park",
      "name": "Plaza Luis \"Quique\" Sánchez Vera",
      "source": "municipalidad",
      "@geometry": "center"
    }
  },
  {
    "id": "way/215511998",
    "lat": -28.4934289,
    "lon": -65.7924247,
    "name": "Plaza Raul Contreras",
    "categoria": "otro",
    "extra": {
      "@id": "way/215511998",
      "leisure": "park",
      "name": "Plaza Raul Contreras",
      "@geometry": "center"
    }
  },
  {
    "id": "way/221142358",
    "lat": -28.4644291,
    "lon": -65.7662534,
    "name": "Plaza El Agricultor",
    "categoria": "otro",
    "extra": {
      "@id": "way/221142358",
      "leisure": "park",
      "name": "Plaza El Agricultor",
      "@geometry": "center"
    }
  },
  {
    "id": "way/225003807",
    "lat": -28.4994923,
    "lon": -65.789739,
    "name": "Plaza 29 de Abril",
    "categoria": "otro",
    "extra": {
      "@id": "way/225003807",
      "leisure": "park",
      "name": "Plaza 29 de Abril",
      "source:name": "Ordenanza Concejo Deliberante",
      "@geometry": "center"
    }
  },
  {
    "id": "way/229279232",
    "lat": -27.5211896,
    "lon": -66.3835439,
    "name": "Plazoleta Manuel de Reyes Sinchicay",
    "categoria": "otro",
    "extra": {
      "@id": "way/229279232",
      "leisure": "park",
      "name": "Plazoleta Manuel de Reyes Sinchicay",
      "@geometry": "center"
    }
  },
  {
    "id": "way/235555276",
    "lat": -28.473739,
    "lon": -65.7240415,
    "name": "Plazoleta del Niño",
    "categoria": "otro",
    "extra": {
      "@id": "way/235555276",
      "leisure": "park",
      "name": "Plazoleta del Niño",
      "@geometry": "center"
    }
  },
  {
    "id": "way/240051444",
    "lat": -26.0345142,
    "lon": -67.4528419,
    "name": "Laguna Colorada",
    "categoria": "water",
    "extra": {
      "@id": "way/240051444",
      "name": "Laguna Colorada",
      "natural": "water",
      "wikidata": "Q21842952",
      "@geometry": "center"
    }
  },
  {
    "id": "way/241183608",
    "lat": -25.3030063,
    "lon": -67.77701,
    "name": "Chancho Blanco",
    "categoria": "water",
    "extra": {
      "@id": "way/241183608",
      "intermittent": "yes",
      "name": "Chancho Blanco",
      "name:ay": "Chancho Blanco",
      "name:en": "Chancho Blanco",
      "name:es": "Chancho Blanco",
      "natural": "water",
      "surface": "salt",
      "water": "lagoon",
      "@geometry": "center"
    }
  },
  {
    "id": "way/241183609",
    "lat": -25.5385447,
    "lon": -68.1369473,
    "name": "Laguna Patos",
    "categoria": "water",
    "extra": {
      "@id": "way/241183609",
      "name": "Laguna Patos",
      "natural": "water",
      "water": "lake",
      "@geometry": "center"
    }
  },
  {
    "id": "way/241183611",
    "lat": -25.6640635,
    "lon": -68.1312767,
    "name": "Laguna Cajeros",
    "categoria": "water",
    "extra": {
      "@id": "way/241183611",
      "name": "Laguna Cajeros",
      "natural": "water",
      "water": "lake",
      "@geometry": "center"
    }
  },
  {
    "id": "way/248475237",
    "lat": -27.4739292,
    "lon": -66.0140889,
    "name": "Paseo de la Vida",
    "categoria": "otro",
    "extra": {
      "@id": "way/248475237",
      "leisure": "park",
      "name": "Paseo de la Vida",
      "@geometry": "center"
    }
  },
  {
    "id": "way/248480541",
    "lat": -27.5050916,
    "lon": -66.0201277,
    "name": "Plaza de los niños",
    "categoria": "otro",
    "extra": {
      "@id": "way/248480541",
      "leisure": "park",
      "name": "Plaza de los niños",
      "@geometry": "center"
    }
  },
  {
    "id": "way/249711553",
    "lat": -28.4704949,
    "lon": -65.7677144,
    "name": "Plazoleta La Ilusión",
    "categoria": "otro",
    "extra": {
      "@id": "way/249711553",
      "leisure": "park",
      "name": "Plazoleta La Ilusión",
      "@geometry": "center"
    }
  },
  {
    "id": "way/249897227",
    "lat": -28.5036659,
    "lon": -65.8045354,
    "name": "Plaza Romis Raiden",
    "categoria": "otro",
    "extra": {
      "@id": "way/249897227",
      "leisure": "park",
      "name": "Plaza Romis Raiden",
      "@geometry": "center"
    }
  },
  {
    "id": "way/250262944",
    "lat": -26.3891635,
    "lon": -66.4808634,
    "name": "Laguna Grande",
    "categoria": "water",
    "extra": {
      "@id": "way/250262944",
      "name": "Laguna Grande",
      "natural": "water",
      "@geometry": "center"
    }
  },
  {
    "id": "way/250262945",
    "lat": -26.3728767,
    "lon": -66.4725172,
    "name": "Laguna Huasito",
    "categoria": "water",
    "extra": {
      "@id": "way/250262945",
      "name": "Laguna Huasito",
      "natural": "water",
      "@geometry": "center"
    }
  },
  {
    "id": "way/251111231",
    "lat": -28.1744944,
    "lon": -65.7931696,
    "name": "Ex Cementerio",
    "categoria": "otro",
    "extra": {
      "@id": "way/251111231",
      "disused": "yes",
      "historic": "ruins",
      "landuse": "cemetery",
      "name": "Ex Cementerio",
      "@geometry": "center"
    }
  },
  {
    "id": "way/255044199",
    "lat": -28.4642902,
    "lon": -65.8181664,
    "name": "Monumento a la Mujer Aborigen",
    "categoria": "otro",
    "extra": {
      "@id": "way/255044199",
      "historic": "monument",
      "name": "Monumento a la Mujer Aborigen",
      "@geometry": "center"
    }
  },
  {
    "id": "way/265214618",
    "lat": -25.6881803,
    "lon": -67.1461183,
    "name": "Laguna Pedernal",
    "categoria": "water",
    "extra": {
      "@id": "way/265214618",
      "name": "Laguna Pedernal",
      "natural": "water",
      "water": "lake",
      "@geometry": "center"
    }
  },
  {
    "id": "way/265607964",
    "lat": -28.7454926,
    "lon": -65.5478814,
    "name": "Paseo del Mirador",
    "categoria": "otro",
    "extra": {
      "@id": "way/265607964",
      "leisure": "park",
      "name": "Paseo del Mirador",
      "@geometry": "center"
    }
  },
  {
    "id": "way/282116201",
    "lat": -28.43237,
    "lon": -65.7744526,
    "name": "Plaza Del Nido",
    "categoria": "otro",
    "extra": {
      "@id": "way/282116201",
      "leisure": "park",
      "name": "Plaza Del Nido",
      "@geometry": "center"
    }
  },
  {
    "id": "way/287833802",
    "lat": -26.6491004,
    "lon": -68.1784313,
    "name": "Laguna Amarga",
    "categoria": "water",
    "extra": {
      "@id": "way/287833802",
      "name": "Laguna Amarga",
      "natural": "water",
      "water": "lake",
      "@geometry": "center"
    }
  },
  {
    "id": "way/288200431",
    "lat": -26.5044464,
    "lon": -68.0984424,
    "name": "Laguna del Peinado",
    "categoria": "water",
    "extra": {
      "@id": "way/288200431",
      "name": "Laguna del Peinado",
      "natural": "water",
      "wikidata": "Q21835347",
      "@geometry": "center"
    }
  },
  {
    "id": "way/288645731",
    "lat": -26.6944314,
    "lon": -66.0490398,
    "name": "Iglesia Nuestra Señora de la Candelaria",
    "categoria": "place_of_worship",
    "extra": {
      "@id": "way/288645731",
      "addr:city": "Santa María",
      "addr:postcode": "4139",
      "addr:street": "Fray Mamerto Esquiú",
      "amenity": "place_of_worship",
      "building": "yes",
      "check_date": "2025-08-17",
      "denomination": "catholic",
      "name": "Iglesia Nuestra Señora de la Candelaria",
      "religion": "christian",
      "@geometry": "center"
    }
  },
  {
    "id": "way/297298554",
    "lat": -28.4778575,
    "lon": -65.805617,
    "name": "Cabañas Samay",
    "categoria": "chalet",
    "extra": {
      "@id": "way/297298554",
      "addr:city": "San Fernando del Valle de Catamarca",
      "addr:street": "Guillermo Leguizamon",
      "contact:facebook": "https://www.facebook.com/descansosamay",
      "contact:whatsapp": "+54 9 383 434-1888",
      "description": "Piscina con bar Hidromasaje Climatizado Estacionamiento techado Salón de usos múltiples para 180 personas Amplio parque de 4000 m2 Asadores Seguridad y privacidad",
      "name": "Cabañas Samay",
      "phone": "+54 383 443-8802",
      "tourism": "chalet",
      "@geometry": "center"
    }
  },
  {
    "id": "way/316104226",
    "lat": -28.1789922,
    "lon": -66.199105,
    "name": "Balneario municipal de Saujil",
    "categoria": "camp_site",
    "extra": {
      "@id": "way/316104226",
      "name": "Balneario municipal de Saujil",
      "tourism": "camp_site",
      "@geometry": "center"
    }
  },
  {
    "id": "way/321071468",
    "lat": -28.1747577,
    "lon": -66.2157304,
    "name": "Parque de la Estación",
    "categoria": "otro",
    "extra": {
      "@id": "way/321071468",
      "leisure": "park",
      "name": "Parque de la Estación",
      "@geometry": "center"
    }
  },
  {
    "id": "way/325754501",
    "lat": -26.6961352,
    "lon": -66.0410916,
    "name": "Camping Municipal",
    "categoria": "camp_site",
    "extra": {
      "@id": "way/325754501",
      "addr:city": "Santa María",
      "addr:street": "Domingo Faustino Sarmiento",
      "name": "Camping Municipal",
      "operator": "Municipio Santa María",
      "tourism": "camp_site",
      "@geometry": "center"
    }
  },
  {
    "id": "way/325754502",
    "lat": -26.6958116,
    "lon": -66.0417661,
    "name": "Albergue Municipal",
    "categoria": "hostel",
    "extra": {
      "@id": "way/325754502",
      "building": "yes",
      "building:levels": "1",
      "name": "Albergue Municipal",
      "tourism": "hostel",
      "@geometry": "center"
    }
  },
  {
    "id": "way/328954681",
    "lat": -28.8124886,
    "lon": -65.5013516,
    "name": "Parroquia Inmaculada Concepción",
    "categoria": "place_of_worship",
    "extra": {
      "@id": "way/328954681",
      "amenity": "place_of_worship",
      "building": "yes",
      "denomination": "catholic",
      "name": "Parroquia Inmaculada Concepción",
      "religion": "christian",
      "@geometry": "center"
    }
  },
  {
    "id": "way/328966646",
    "lat": -28.7575944,
    "lon": -65.5441686,
    "name": "El Aguila",
    "categoria": "otro",
    "extra": {
      "@id": "way/328966646",
      "leisure": "park",
      "name": "El Aguila",
      "@geometry": "center"
    }
  },
  {
    "id": "way/329787573",
    "lat": -28.1369855,
    "lon": -66.2014932,
    "name": "Plazoleta",
    "categoria": "otro",
    "extra": {
      "@id": "way/329787573",
      "leisure": "park",
      "name": "Plazoleta",
      "@geometry": "center"
    }
  },
  {
    "id": "way/329787574",
    "lat": -28.1425966,
    "lon": -66.195419,
    "name": "Plazoleta",
    "categoria": "otro",
    "extra": {
      "@id": "way/329787574",
      "leisure": "park",
      "name": "Plazoleta",
      "@geometry": "center"
    }
  },
  {
    "id": "way/331215815",
    "lat": -28.8169758,
    "lon": -65.4979661,
    "name": "El Paso del Indio",
    "categoria": "hostel",
    "extra": {
      "@id": "way/331215815",
      "addr:postcode": "4701",
      "description": "Hostería de Montaña",
      "name": "El Paso del Indio",
      "tourism": "hostel",
      "@geometry": "center"
    }
  },
  {
    "id": "way/336607813",
    "lat": -28.4887265,
    "lon": -65.7794727,
    "name": "Plaza España",
    "categoria": "otro",
    "extra": {
      "@id": "way/336607813",
      "leisure": "park",
      "loc_name": "Plaza La Viñita",
      "name": "Plaza España",
      "@geometry": "center"
    }
  },
  {
    "id": "way/337855938",
    "lat": -26.1605324,
    "lon": -66.8087553,
    "name": "Laguna",
    "categoria": "water",
    "extra": {
      "@id": "way/337855938",
      "intermittent": "yes",
      "name": "Laguna",
      "natural": "water",
      "source:name": "IGN",
      "water": "lake",
      "@geometry": "center"
    }
  },
  {
    "id": "way/346060428",
    "lat": -28.4644791,
    "lon": -65.8080851,
    "name": "San Antonio María Claret",
    "categoria": "place_of_worship",
    "extra": {
      "@id": "way/346060428",
      "addr:city": "San Fernando del Valle de Catamarca",
      "addr:postcode": "4700",
      "addr:street": "Avenida Amerindia",
      "amenity": "place_of_worship",
      "building": "church",
      "denomination": "roman_catholic",
      "name": "San Antonio María Claret",
      "religion": "christian",
      "@geometry": "center"
    }
  },
  {
    "id": "way/353370426",
    "lat": -26.6940821,
    "lon": -66.045159,
    "name": "Hotel Cielo del Oeste",
    "categoria": "hotel",
    "extra": {
      "@id": "way/353370426",
      "addr:city": "Santa María",
      "addr:housenumber": "450",
      "addr:postcode": "4139",
      "addr:street": "San Martín",
      "email": "rosaalbaquiroz@hotmail.com",
      "name": "Hotel Cielo del Oeste",
      "phone": "+54 03838 420240",
      "smoking": "separated",
      "tourism": "hotel",
      "@geometry": "center"
    }
  },
  {
    "id": "way/353464775",
    "lat": -26.7043598,
    "lon": -66.0510578,
    "name": "Hotel Complejo Caasama",
    "categoria": "hotel",
    "extra": {
      "@id": "way/353464775",
      "addr:city": "Santa María",
      "addr:housenumber": "500",
      "addr:postcode": "4139",
      "addr:street": "Avenida 9 de Julio",
      "contact:facebook": "https://www.facebook.com/hotelcaasama",
      "landuse": "commercial",
      "leisure": "resort",
      "name": "Hotel Complejo Caasama",
      "phone": "+54 3838 421627;+54 3838 422270",
      "tourism": "hotel",
      "@geometry": "center"
    }
  },
  {
    "id": "way/353467565",
    "lat": -26.7029654,
    "lon": -66.0481414,
    "name": "Plaza Las Americas",
    "categoria": "otro",
    "extra": {
      "@id": "way/353467565",
      "leisure": "park",
      "name": "Plaza Las Americas",
      "@geometry": "center"
    }
  },
  {
    "id": "way/364580276",
    "lat": -28.493635,
    "lon": -65.797445,
    "name": "Plazoleta",
    "categoria": "otro",
    "extra": {
      "@id": "way/364580276",
      "leisure": "park",
      "name": "Plazoleta",
      "@geometry": "center"
    }
  },
  {
    "id": "way/369614817",
    "lat": -28.0407031,
    "lon": -67.5856667,
    "name": "Plaza Santa Rosa",
    "categoria": "otro",
    "extra": {
      "@id": "way/369614817",
      "leisure": "park",
      "name": "Plaza Santa Rosa",
      "@geometry": "center"
    }
  },
  {
    "id": "way/373436706",
    "lat": -28.9003957,
    "lon": -65.4279012,
    "name": "Parque Arqueologico provincial La Tunita",
    "categoria": "otro",
    "extra": {
      "@id": "way/373436706",
      "historic": "archaeological_site",
      "name": "Parque Arqueologico provincial La Tunita",
      "@geometry": "center"
    }
  },
  {
    "id": "way/400352628",
    "lat": -27.7542751,
    "lon": -68.4606118,
    "name": "Laguna de las Tunas",
    "categoria": "water",
    "extra": {
      "@id": "way/400352628",
      "intermittent": "yes",
      "name": "Laguna de las Tunas",
      "natural": "water",
      "water": "lake",
      "wikidata": "Q21831996",
      "@geometry": "center"
    }
  },
  {
    "id": "way/400490052",
    "lat": -27.5611545,
    "lon": -68.147217,
    "name": "Hosteria Cortaderas",
    "categoria": "hotel",
    "extra": {
      "@id": "way/400490052",
      "addr:municipality": "Tinogasta",
      "contact:email": "complejo.hostería.cortaderas@gmail.com",
      "contact:facebook": "https://www.facebook.com/complejocortaderas/",
      "contact:whatsapp": "+54 9 381 6621487",
      "name": "Hosteria Cortaderas",
      "tourism": "hotel",
      "@geometry": "center"
    }
  },
  {
    "id": "way/400506352",
    "lat": -27.2431283,
    "lon": -68.1154902,
    "name": "Refugio Nº 4 Las Losas",
    "categoria": "wilderness_hut",
    "extra": {
      "@id": "way/400506352",
      "amenity": "arts_centre",
      "building": "yes",
      "drinking_water": "no",
      "fee": "no",
      "name": "Refugio Nº 4 Las Losas",
      "shower": "no",
      "toilets": "no",
      "tourism": "wilderness_hut",
      "@geometry": "center"
    }
  },
  {
    "id": "way/400799543",
    "lat": -27.5554992,
    "lon": -68.3625434,
    "name": "Laguna Amarga",
    "categoria": "water",
    "extra": {
      "@id": "way/400799543",
      "intermittent": "yes",
      "name": "Laguna Amarga",
      "natural": "water",
      "water": "lake",
      "wikidata": "Q21845491",
      "@geometry": "center"
    }
  },
  {
    "id": "way/400799544",
    "lat": -27.5180734,
    "lon": -68.3558458,
    "name": "Laguna Frias",
    "categoria": "water",
    "extra": {
      "@id": "way/400799544",
      "intermittent": "yes",
      "name": "Laguna Frias",
      "natural": "water",
      "water": "lake",
      "wikidata": "Q21839750",
      "@geometry": "center"
    }
  },
  {
    "id": "way/400840582",
    "lat": -27.4201634,
    "lon": -68.1309624,
    "name": "Refugio N° 3 Cazadera Grande",
    "categoria": "wilderness_hut",
    "extra": {
      "@id": "way/400840582",
      "building": "yes",
      "drinking_water": "no",
      "fee": "no",
      "name": "Refugio N° 3 Cazadera Grande",
      "shower": "no",
      "toilets": "no",
      "tourism": "wilderness_hut",
      "@geometry": "center"
    }
  },
  {
    "id": "way/400840583",
    "lat": -26.9752602,
    "lon": -68.0563289,
    "name": "Refugio N° 5 Las Pelades",
    "categoria": "wilderness_hut",
    "extra": {
      "@id": "way/400840583",
      "building": "yes",
      "drinking_water": "no",
      "fee": "no",
      "name": "Refugio N° 5 Las Pelades",
      "shower": "no",
      "toilets": "no",
      "tourism": "wilderness_hut",
      "@geometry": "center"
    }
  },
  {
    "id": "way/400840584",
    "lat": -26.8733005,
    "lon": -68.2989624,
    "name": "Refugio N° 6",
    "categoria": "wilderness_hut",
    "extra": {
      "@id": "way/400840584",
      "access": "yes",
      "building": "yes",
      "drinking_water": "no",
      "fee": "no",
      "name": "Refugio N° 6",
      "shower": "no",
      "toilets": "no",
      "tourism": "wilderness_hut",
      "@geometry": "center"
    }
  },
  {
    "id": "way/400897678",
    "lat": -27.7702267,
    "lon": -68.1158798,
    "name": "Refugio N° 2 Valle de chaschuil",
    "categoria": "wilderness_hut",
    "extra": {
      "@id": "way/400897678",
      "access": "yes",
      "building": "yes",
      "drinking_water": "no",
      "fee": "no",
      "name": "Refugio N° 2 Valle de chaschuil",
      "shower": "no",
      "toilets": "no",
      "tourism": "wilderness_hut",
      "@geometry": "center"
    }
  },
  {
    "id": "way/401661795",
    "lat": -27.5521754,
    "lon": -68.1461052,
    "name": "Guanchin",
    "categoria": "water",
    "extra": {
      "@id": "way/401661795",
      "alt_name": "Chuaschil",
      "intermittent": "yes",
      "name": "Guanchin",
      "natural": "water",
      "water": "river",
      "@geometry": "center"
    }
  },
  {
    "id": "way/403183990",
    "lat": -25.569876,
    "lon": -68.4115307,
    "name": "Aguas Calientes",
    "categoria": "water",
    "extra": {
      "@id": "way/403183990",
      "name": "Aguas Calientes",
      "natural": "water",
      "water": "lake",
      "@geometry": "center"
    }
  },
  {
    "id": "way/403368197",
    "lat": -25.3493197,
    "lon": -67.7295583,
    "name": "Laguna Las Lagunitas",
    "categoria": "water",
    "extra": {
      "@id": "way/403368197",
      "name": "Laguna Las Lagunitas",
      "natural": "water",
      "water": "lake",
      "@geometry": "center"
    }
  },
  {
    "id": "way/403368198",
    "lat": -25.350677,
    "lon": -67.7339036,
    "name": "Laguna Las Lagunitas",
    "categoria": "water",
    "extra": {
      "@id": "way/403368198",
      "name": "Laguna Las Lagunitas",
      "natural": "water",
      "water": "lake",
      "@geometry": "center"
    }
  },
  {
    "id": "way/403368199",
    "lat": -25.3625439,
    "lon": -67.7269566,
    "name": "Laguna del Conito",
    "categoria": "water",
    "extra": {
      "@id": "way/403368199",
      "name": "Laguna del Conito",
      "natural": "water",
      "water": "lake",
      "@geometry": "center"
    }
  },
  {
    "id": "way/403454431",
    "lat": -26.1709204,
    "lon": -67.7501771,
    "name": "Laguna Ratones",
    "categoria": "water",
    "extra": {
      "@id": "way/403454431",
      "intermittent": "yes",
      "name": "Laguna Ratones",
      "natural": "water",
      "water": "lake",
      "wikidata": "Q21833235",
      "@geometry": "center"
    }
  },
  {
    "id": "way/403640126",
    "lat": -25.4302686,
    "lon": -67.1840735,
    "name": "Mina Incahuasi",
    "categoria": "otro",
    "extra": {
      "@id": "way/403640126",
      "historic": "ruins",
      "name": "Mina Incahuasi",
      "wheelchair": "no",
      "@geometry": "center"
    }
  },
  {
    "id": "way/403640127",
    "lat": -25.425717,
    "lon": -67.1851711,
    "name": "Mina Incahuasi",
    "categoria": "otro",
    "extra": {
      "@id": "way/403640127",
      "historic": "ruins",
      "name": "Mina Incahuasi",
      "wheelchair": "no",
      "@geometry": "center"
    }
  },
  {
    "id": "way/403641555",
    "lat": -25.4195166,
    "lon": -66.8091477,
    "name": "Laguna Verde",
    "categoria": "water",
    "extra": {
      "@id": "way/403641555",
      "name": "Laguna Verde",
      "name:source": "IGN",
      "natural": "water",
      "water": "lake",
      "@geometry": "center"
    }
  },
  {
    "id": "way/403661331",
    "lat": -25.3398606,
    "lon": -66.838126,
    "name": "Laguna",
    "categoria": "water",
    "extra": {
      "@id": "way/403661331",
      "intermittent": "yes",
      "name": "Laguna",
      "name:source": "IGN",
      "natural": "water",
      "water": "lake",
      "@geometry": "center"
    }
  },
  {
    "id": "way/403753913",
    "lat": -25.4183155,
    "lon": -66.8222768,
    "name": "Laguna Verde",
    "categoria": "water",
    "extra": {
      "@id": "way/403753913",
      "intermittent": "yes",
      "name": "Laguna Verde",
      "name:source": "IGN",
      "natural": "water",
      "water": "lake",
      "@geometry": "center"
    }
  },
  {
    "id": "way/403848184",
    "lat": -25.3370039,
    "lon": -66.7983327,
    "name": "Laguna",
    "categoria": "water",
    "extra": {
      "@id": "way/403848184",
      "intermittent": "yes",
      "name": "Laguna",
      "name:source": "IGN",
      "natural": "water",
      "water": "lake",
      "@geometry": "center"
    }
  },
  {
    "id": "node/403872353",
    "lat": -25.237685,
    "lon": -67.864494,
    "name": "Cerro Archibarca",
    "categoria": "peak",
    "extra": {
      "@id": "node/403872353",
      "ele": "5629",
      "name": "Cerro Archibarca",
      "natural": "peak",
      "wikidata": "Q21845746",
      "wikipedia": "en:Cerro Archibarca"
    }
  },
  {
    "id": "way/404391717",
    "lat": -25.591238,
    "lon": -67.1771285,
    "name": "Laguna",
    "categoria": "water",
    "extra": {
      "@id": "way/404391717",
      "intermittent": "yes",
      "name": "Laguna",
      "name:source": "IGN",
      "natural": "water",
      "water": "lake",
      "@geometry": "center"
    }
  },
  {
    "id": "way/404979163",
    "lat": -26.0099886,
    "lon": -67.0456754,
    "name": "Laguna Diamante",
    "categoria": "water",
    "extra": {
      "@id": "way/404979163",
      "intermittent": "yes",
      "name": "Laguna Diamante",
      "natural": "water",
      "water": "lake",
      "@geometry": "center"
    }
  },
  {
    "id": "way/405113423",
    "lat": -26.1362343,
    "lon": -66.7181363,
    "name": "Laguna",
    "categoria": "water",
    "extra": {
      "@id": "way/405113423",
      "intermittent": "yes",
      "name": "Laguna",
      "natural": "water",
      "source:name": "IGN",
      "@geometry": "center"
    }
  },
  {
    "id": "way/405116424",
    "lat": -26.257151,
    "lon": -66.902974,
    "name": "Laguna Del Salitre",
    "categoria": "water",
    "extra": {
      "@id": "way/405116424",
      "intermittent": "yes",
      "name": "Laguna Del Salitre",
      "natural": "water",
      "water": "lake",
      "@geometry": "center"
    }
  },
  {
    "id": "way/405315264",
    "lat": -26.2943941,
    "lon": -67.088455,
    "name": "Laguna Espejo",
    "categoria": "water",
    "extra": {
      "@id": "way/405315264",
      "intermittent": "yes",
      "name": "Laguna Espejo",
      "natural": "water",
      "water": "lake",
      "@geometry": "center"
    }
  },
  {
    "id": "way/405896455",
    "lat": -25.6130025,
    "lon": -67.672916,
    "name": "Ojos del Campo",
    "categoria": "water",
    "extra": {
      "@id": "way/405896455",
      "name": "Ojos del Campo",
      "natural": "water",
      "water": "lake",
      "@geometry": "center"
    }
  },
  {
    "id": "way/405896456",
    "lat": -25.6134959,
    "lon": -67.6723762,
    "name": "Ojos del Campo",
    "categoria": "water",
    "extra": {
      "@id": "way/405896456",
      "name": "Ojos del Campo",
      "natural": "water",
      "water": "lake",
      "@geometry": "center"
    }
  },
  {
    "id": "way/405896457",
    "lat": -25.6126584,
    "lon": -67.672686,
    "name": "Ojos del Campo",
    "categoria": "water",
    "extra": {
      "@id": "way/405896457",
      "name": "Ojos del Campo",
      "natural": "water",
      "water": "lake",
      "@geometry": "center"
    }
  },
  {
    "id": "way/405896458",
    "lat": -25.6139083,
    "lon": -67.6721616,
    "name": "Ojos del Campo",
    "categoria": "water",
    "extra": {
      "@id": "way/405896458",
      "name": "Ojos del Campo",
      "natural": "water",
      "water": "lake",
      "@geometry": "center"
    }
  },
  {
    "id": "way/407356642",
    "lat": -26.1151222,
    "lon": -67.4190791,
    "name": "Pucará de La Alumbrera",
    "categoria": "otro",
    "extra": {
      "@id": "way/407356642",
      "historic": "archaeological_site",
      "name": "Pucará de La Alumbrera",
      "wikidata": "Q6090777",
      "wikipedia": "es:Pucará de La Alumbrera",
      "@geometry": "center"
    }
  },
  {
    "id": "way/414877299",
    "lat": -28.4846438,
    "lon": -65.7977202,
    "name": "Plaza de la Democracia",
    "categoria": "otro",
    "extra": {
      "@id": "way/414877299",
      "leisure": "park",
      "name": "Plaza de la Democracia",
      "@geometry": "center"
    }
  },
  {
    "id": "node/420466448",
    "lat": -28.1531409,
    "lon": -65.7934858,
    "name": "Camping Los Sauces",
    "categoria": "camp_site",
    "extra": {
      "@id": "node/420466448",
      "is_in": "La Puerta",
      "is_in:municipality": "Ambato",
      "name": "Camping Los Sauces",
      "tourism": "camp_site"
    }
  },
  {
    "id": "node/422258757",
    "lat": -28.169868,
    "lon": -65.7881209,
    "name": "Gruta de la Virgen",
    "categoria": "place_of_worship",
    "extra": {
      "@id": "node/422258757",
      "amenity": "place_of_worship",
      "denomination": "catholic",
      "is_in": "La Puerta",
      "is_in:municipality": "Ambato",
      "is_in:state": "Catamarca",
      "name": "Gruta de la Virgen",
      "religion": "christian"
    }
  },
  {
    "id": "node/422286097",
    "lat": -28.1699104,
    "lon": -65.791567,
    "name": "Parroquia Nuestra Sra. del Rosario",
    "categoria": "place_of_worship",
    "extra": {
      "@id": "node/422286097",
      "amenity": "place_of_worship",
      "denomination": "catholic",
      "is_in": "La Puerta",
      "is_in:municipality": "Ambato",
      "name": "Parroquia Nuestra Sra. del Rosario",
      "religion": "christian"
    }
  },
  {
    "id": "node/422301656",
    "lat": -28.4893626,
    "lon": -65.6062901,
    "name": "Hostería Cuesta El Portezuelo",
    "categoria": "hotel",
    "extra": {
      "@id": "node/422301656",
      "addr:city": "Cerro Ancasti",
      "addr:street": "Ruta Provincial 42",
      "contact:instagram": "hosteriacuestaelportezuelo",
      "contact:whatsapp": "+54 9 383 498-3992",
      "name": "Hostería Cuesta El Portezuelo",
      "old_name": "Hostería Polo Giménez",
      "operator": "Municipalidad de Valle Viejo",
      "phone": "+54 9 383 498-3992",
      "tourism": "hotel"
    }
  },
  {
    "id": "node/422969997",
    "lat": -28.4678343,
    "lon": -65.7752828,
    "name": "Hotel Colonial",
    "categoria": "hotel",
    "extra": {
      "@id": "node/422969997",
      "addr:city": "San Fernando del Valle de Catamarca",
      "addr:housenumber": "802",
      "addr:street": "República",
      "description": "República y Tucumán",
      "email": "leila_amado@hotmail.com",
      "name": "Hotel Colonial",
      "phone": "+54 383 442-3502",
      "stars": "1",
      "tourism": "hotel"
    }
  },
  {
    "id": "node/422970000",
    "lat": -28.4748519,
    "lon": -65.7735503,
    "name": "Hotel Shincal",
    "categoria": "hotel",
    "extra": {
      "@id": "node/422970000",
      "addr:housenumber": "1120",
      "addr:street": "Vicario Segura",
      "name": "Hotel Shincal",
      "phone": "+54-383 442-1083",
      "stars": "1",
      "tourism": "hotel"
    }
  },
  {
    "id": "node/422971515",
    "lat": -28.4760719,
    "lon": -65.7754451,
    "name": "Residencial Menem",
    "categoria": "motel",
    "extra": {
      "@id": "node/422971515",
      "addr:street": "Avenida Güemes",
      "name": "Residencial Menem",
      "tourism": "motel"
    }
  },
  {
    "id": "node/424218810",
    "lat": -28.467623,
    "lon": -65.7850008,
    "name": "Hotel Casino Catamarca",
    "categoria": "hotel",
    "extra": {
      "@id": "node/424218810",
      "addr:city": "San Fernando del Valle de Catamarca",
      "addr:housenumber": "151",
      "addr:postcode": "K4700BIC",
      "addr:street": "Esquiú",
      "beds": "160",
      "contact:whatsapp": "+54 9 383 433-4444",
      "email": "reservas@hotelcasinocatamarca.com",
      "internet_access": "yes",
      "name": "Hotel Casino Catamarca",
      "old_name": "Hotel de Turismo",
      "operator": "Hotel Casino Tandil SA",
      "phone": "+54 383 443-2928",
      "rooms": "72",
      "stars": "4",
      "tourism": "hotel",
      "website": "https://www.hotelcasinocatamarca.com"
    }
  },
  {
    "id": "way/429318389",
    "lat": -26.7208838,
    "lon": -66.0514744,
    "name": "Predio Mama Llama",
    "categoria": "attraction",
    "extra": {
      "@id": "way/429318389",
      "area": "yes",
      "name": "Predio Mama Llama",
      "tourism": "attraction",
      "@geometry": "center"
    }
  },
  {
    "id": "node/434938185",
    "lat": -28.4581859,
    "lon": -65.7958546,
    "name": "Capilla Virgen de Fátima",
    "categoria": "place_of_worship",
    "extra": {
      "@id": "node/434938185",
      "amenity": "place_of_worship",
      "denomination": "catholic",
      "is_in": "Catamarca",
      "name": "Capilla Virgen de Fátima",
      "religion": "christian"
    }
  },
  {
    "id": "node/444186208",
    "lat": -28.1934687,
    "lon": -65.7709491,
    "name": "Información Turística",
    "categoria": "information",
    "extra": {
      "@id": "node/444186208",
      "description": "Información Turística",
      "information": "board",
      "is_in:municipality": "Ambato",
      "is_in:state": "Catamarca",
      "name": "Información Turística",
      "tourism": "information"
    }
  },
  {
    "id": "node/444194940",
    "lat": -28.394849,
    "lon": -65.7024564,
    "name": "Parroquia de San José",
    "categoria": "place_of_worship",
    "extra": {
      "@id": "node/444194940",
      "addr:city": "San José de Piedra Blanca",
      "amenity": "place_of_worship",
      "denomination": "catholic",
      "name": "Parroquia de San José",
      "religion": "christian"
    }
  },
  {
    "id": "node/444194943",
    "lat": -28.3942219,
    "lon": -65.7038707,
    "name": "Casa Natal de Fray Mamerto Esquiu",
    "categoria": "museum",
    "extra": {
      "@id": "node/444194943",
      "addr:city": "San José",
      "addr:street": "Avenida La Callecita",
      "name": "Casa Natal de Fray Mamerto Esquiu",
      "tourism": "museum",
      "wikidata": "Q59383721"
    }
  },
  {
    "id": "node/448037394",
    "lat": -28.4444792,
    "lon": -65.7216144,
    "name": "Nuestra Señora de las Mercedes",
    "categoria": "place_of_worship",
    "extra": {
      "@id": "node/448037394",
      "addr:city": "Villa Dolores",
      "amenity": "place_of_worship",
      "denomination": "catholic",
      "name": "Nuestra Señora de las Mercedes",
      "religion": "christian"
    }
  },
  {
    "id": "node/448060777",
    "lat": -28.4438334,
    "lon": -65.7028459,
    "name": "Santa Rosa de Lima",
    "categoria": "place_of_worship",
    "extra": {
      "@id": "node/448060777",
      "addr:city": "Santa Rosa",
      "addr:postcode": "4707",
      "addr:street": "Crisanto Gómez",
      "amenity": "place_of_worship",
      "denomination": "catholic",
      "name": "Santa Rosa de Lima",
      "religion": "christian"
    }
  },
  {
    "id": "way/479217470",
    "lat": -27.6896625,
    "lon": -67.1834586,
    "name": "Museo y Centro de Interpretación Sitio El Shincal",
    "categoria": "museum",
    "extra": {
      "@id": "way/479217470",
      "building": "yes",
      "building:levels": "1",
      "building:material": "stone",
      "name": "Museo y Centro de Interpretación Sitio El Shincal",
      "tourism": "museum",
      "@geometry": "center"
    }
  },
  {
    "id": "way/479217484",
    "lat": -27.6871637,
    "lon": -67.1790209,
    "name": "Kallanka",
    "categoria": "otro",
    "extra": {
      "@id": "way/479217484",
      "barrier": "wall",
      "historic": "ruins",
      "name": "Kallanka",
      "@geometry": "center"
    }
  },
  {
    "id": "way/479217493",
    "lat": -27.6865555,
    "lon": -67.1785826,
    "name": "Ushnu",
    "categoria": "otro",
    "extra": {
      "@id": "way/479217493",
      "barrier": "wall",
      "historic": "ruins",
      "name": "Ushnu",
      "@geometry": "center"
    }
  },
  {
    "id": "way/479217500",
    "lat": -27.6877655,
    "lon": -67.1782482,
    "name": "Sinchiwasi",
    "categoria": "otro",
    "extra": {
      "@id": "way/479217500",
      "barrier": "wall",
      "historic": "ruins",
      "name": "Sinchiwasi",
      "@geometry": "center"
    }
  },
  {
    "id": "way/479217505",
    "lat": -27.684475,
    "lon": -67.1897713,
    "name": "Residencia del Jefe",
    "categoria": "otro",
    "extra": {
      "@id": "way/479217505",
      "barrier": "wall",
      "historic": "ruins",
      "name": "Residencia del Jefe",
      "@geometry": "center"
    }
  },
  {
    "id": "way/481285427",
    "lat": -28.4487294,
    "lon": -65.7572306,
    "name": "Predio Ferial Campo las Heras",
    "categoria": "attraction",
    "extra": {
      "@id": "way/481285427",
      "addr:city": "San Fernando del Valle de Catamarca",
      "addr:postcode": "4700",
      "alt_name": "Predio Ferial Catamarca",
      "amenity": "arts_centre",
      "landuse": "fairground",
      "name": "Predio Ferial Campo las Heras",
      "operator": "Gobierno de Catamarca",
      "operator:type": "public",
      "tourism": "attraction",
      "@geometry": "center"
    }
  },
  {
    "id": "way/483568333",
    "lat": -28.4696359,
    "lon": -65.7872435,
    "name": "Monumento a la Coronación",
    "categoria": "otro",
    "extra": {
      "@id": "way/483568333",
      "access": "yes",
      "description": "Monumento a la Coronación de la Virgen del Valle",
      "historic": "monument",
      "name": "Monumento a la Coronación",
      "@geometry": "center"
    }
  },
  {
    "id": "way/487090536",
    "lat": -28.370243,
    "lon": -65.7019176,
    "name": "Santuario del Señor de los Milagros",
    "categoria": "place_of_worship",
    "extra": {
      "@id": "way/487090536",
      "addr:city": "La Tercena",
      "amenity": "place_of_worship",
      "denomination": "catholic",
      "landuse": "religious",
      "name": "Santuario del Señor de los Milagros",
      "religion": "christian",
      "@geometry": "center"
    }
  },
  {
    "id": "way/487550298",
    "lat": -28.4534774,
    "lon": -65.7575416,
    "name": "Casa de la Puna",
    "categoria": "museum",
    "extra": {
      "@id": "way/487550298",
      "addr:city": "San Fernando del Valle de Catamarca",
      "addr:postcode": "4700",
      "addr:street": "Avenida Recalde",
      "amenity": "arts_centre",
      "name": "Casa de la Puna",
      "tourism": "museum",
      "@geometry": "center"
    }
  },
  {
    "id": "way/488945324",
    "lat": -28.4436534,
    "lon": -65.7028226,
    "name": "Antigua Iglesia de Santa Rosa de Lima",
    "categoria": "otro",
    "extra": {
      "@id": "way/488945324",
      "addr:city": "Santa Rosa",
      "addr:postcode": "4707",
      "addr:street": "Crisanto Gómez",
      "historic": "ruins",
      "name": "Antigua Iglesia de Santa Rosa de Lima",
      "ruins": "church",
      "@geometry": "center"
    }
  },
  {
    "id": "way/490735619",
    "lat": -28.2713655,
    "lon": -65.7333441,
    "name": "Antigua Residencia Gubernamental",
    "categoria": "otro",
    "extra": {
      "@id": "way/490735619",
      "addr:city": "Las Pirquitas",
      "area": "yes",
      "historic": "ruins",
      "name": "Antigua Residencia Gubernamental",
      "ruins": "house",
      "@geometry": "center"
    }
  },
  {
    "id": "way/491185990",
    "lat": -28.0289284,
    "lon": -67.5960941,
    "name": "plazoleta rosa",
    "categoria": "picnic_site",
    "extra": {
      "@id": "way/491185990",
      "name": "plazoleta rosa",
      "tourism": "picnic_site",
      "@geometry": "center"
    }
  },
  {
    "id": "way/491592425",
    "lat": -27.5830147,
    "lon": -66.315473,
    "name": "Plaza 9 de Julio",
    "categoria": "otro",
    "extra": {
      "@id": "way/491592425",
      "leisure": "park",
      "name": "Plaza 9 de Julio",
      "@geometry": "center"
    }
  },
  {
    "id": "way/496366268",
    "lat": -28.4545395,
    "lon": -65.7958408,
    "name": "Rotonda Andalgalá",
    "categoria": "otro",
    "extra": {
      "@id": "way/496366268",
      "leisure": "park",
      "name": "Rotonda Andalgalá",
      "@geometry": "center"
    }
  },
  {
    "id": "way/497283274",
    "lat": -28.4274966,
    "lon": -65.7715228,
    "name": "Plaza Soles",
    "categoria": "otro",
    "extra": {
      "@id": "way/497283274",
      "leisure": "park",
      "name": "Plaza Soles",
      "@geometry": "center"
    }
  },
  {
    "id": "way/497289767",
    "lat": -28.5035906,
    "lon": -65.7876888,
    "name": "Plaza 20 de Marzo",
    "categoria": "otro",
    "extra": {
      "@id": "way/497289767",
      "leisure": "park",
      "name": "Plaza 20 de Marzo",
      "@geometry": "center"
    }
  },
  {
    "id": "way/497521290",
    "lat": -28.4636791,
    "lon": -65.6992831,
    "name": "Plaza Eva Perón",
    "categoria": "otro",
    "extra": {
      "@id": "way/497521290",
      "leisure": "park",
      "loc_name": "Plaza Barrio La Antena",
      "name": "Plaza Eva Perón",
      "@geometry": "center"
    }
  },
  {
    "id": "node/497730435",
    "lat": -28.3945424,
    "lon": -65.7173542,
    "name": "Capilla Nuestra Señora del Rosario",
    "categoria": "place_of_worship",
    "extra": {
      "@id": "node/497730435",
      "amenity": "place_of_worship",
      "denomination": "catholic",
      "name": "Capilla Nuestra Señora del Rosario",
      "religion": "christian"
    }
  },
  {
    "id": "node/497733129",
    "lat": -28.2795393,
    "lon": -65.7320364,
    "name": "Nuestra Señora del Valle",
    "categoria": "place_of_worship",
    "extra": {
      "@id": "node/497733129",
      "amenity": "place_of_worship",
      "denomination": "catholic",
      "name": "Nuestra Señora del Valle",
      "religion": "christian"
    }
  },
  {
    "id": "node/503736767",
    "lat": -28.2789964,
    "lon": -65.7324575,
    "name": "Hosteria Pirquitas",
    "categoria": "guest_house",
    "extra": {
      "@id": "node/503736767",
      "addr:city": "Villa Las Pirquitas",
      "addr:housenumber": "120",
      "addr:street": "Avenida San Martín",
      "name": "Hosteria Pirquitas",
      "operator": "Municipalidad de Fray Mamerto Esquiú",
      "phone": "+54 3833 49-9016",
      "stars": "2",
      "tourism": "guest_house"
    }
  },
  {
    "id": "node/503771089",
    "lat": -28.3045158,
    "lon": -65.7321228,
    "name": "Iglesia",
    "categoria": "place_of_worship",
    "extra": {
      "@id": "node/503771089",
      "amenity": "place_of_worship",
      "denomination": "catholic",
      "name": "Iglesia",
      "religion": "christian"
    }
  },
  {
    "id": "node/506448392",
    "lat": -25.5793551,
    "lon": -68.5293232,
    "name": "Hito XVI-4 A",
    "categoria": "otro",
    "extra": {
      "@id": "node/506448392",
      "historic": "boundary_stone",
      "name": "Hito XVI-4 A",
      "ref": "XVI-4A"
    }
  },
  {
    "id": "node/506448396",
    "lat": -25.5744391,
    "lon": -68.514951,
    "name": "Cerro Agua de La Falda",
    "categoria": "peak",
    "extra": {
      "@id": "node/506448396",
      "name": "Cerro Agua de La Falda",
      "natural": "peak",
      "wikidata": "Q23656409"
    }
  },
  {
    "id": "node/506448405",
    "lat": -25.5437894,
    "lon": -68.5373014,
    "name": "Loma La Falda",
    "categoria": "peak",
    "extra": {
      "@id": "node/506448405",
      "ele": "4936",
      "name": "Loma La Falda",
      "natural": "peak"
    }
  },
  {
    "id": "node/506452027",
    "lat": -25.7080995,
    "lon": -68.4789169,
    "name": "Cerro Aguas Blancas",
    "categoria": "peak",
    "extra": {
      "@id": "node/506452027",
      "ele": "5760",
      "name": "Cerro Aguas Blancas",
      "natural": "peak",
      "wikidata": "Q21848300"
    }
  },
  {
    "id": "node/506452625",
    "lat": -25.414405,
    "lon": -68.5899532,
    "name": "Cerro Bayo",
    "categoria": "peak",
    "extra": {
      "@id": "node/506452625",
      "ele": "5401",
      "name": "Cerro Bayo",
      "natural": "peak",
      "wikidata": "Q1790653",
      "wikipedia": "es:Complejo Cerro Bayo"
    }
  },
  {
    "id": "way/536732471",
    "lat": -28.3161967,
    "lon": -66.1493867,
    "name": "Plazoleta",
    "categoria": "otro",
    "extra": {
      "@id": "way/536732471",
      "leisure": "park",
      "name": "Plazoleta",
      "@geometry": "center"
    }
  },
  {
    "id": "node/540530136",
    "lat": -28.1742092,
    "lon": -65.7921748,
    "name": "Camping Las Pircas",
    "categoria": "camp_site",
    "extra": {
      "@id": "node/540530136",
      "disused": "yes",
      "is_in:municipality": "Ambato",
      "name": "Camping Las Pircas",
      "tourism": "camp_site"
    }
  },
  {
    "id": "node/551705444",
    "lat": -28.4640384,
    "lon": -65.6331531,
    "name": "Camping El Portezuelo",
    "categoria": "camp_site",
    "extra": {
      "@id": "node/551705444",
      "name": "Camping El Portezuelo",
      "tourism": "camp_site"
    }
  },
  {
    "id": "node/552602256",
    "lat": -28.1544505,
    "lon": -65.660265,
    "name": "Capilla",
    "categoria": "place_of_worship",
    "extra": {
      "@id": "node/552602256",
      "amenity": "place_of_worship",
      "denomination": "catholic",
      "is_in:municipality": "Paclín",
      "name": "Capilla",
      "religion": "christian"
    }
  },
  {
    "id": "node/552603710",
    "lat": -27.8647362,
    "lon": -65.72696,
    "name": "Hosteria",
    "categoria": "hotel",
    "extra": {
      "@id": "node/552603710",
      "name": "Hosteria",
      "tourism": "hotel"
    }
  },
  {
    "id": "node/552605478",
    "lat": -27.8842395,
    "lon": -65.7286705,
    "name": "Camping",
    "categoria": "picnic_site",
    "extra": {
      "@id": "node/552605478",
      "name": "Camping",
      "tourism": "picnic_site"
    }
  },
  {
    "id": "way/561400082",
    "lat": -27.5248135,
    "lon": -66.0171914,
    "name": "Plaza Octavio Gutierrez",
    "categoria": "otro",
    "extra": {
      "@id": "way/561400082",
      "leisure": "park",
      "name": "Plaza Octavio Gutierrez",
      "@geometry": "center"
    }
  },
  {
    "id": "way/566465456",
    "lat": -28.039036,
    "lon": -67.5875232,
    "name": "Los Olivos",
    "categoria": "caravan_site",
    "extra": {
      "@id": "way/566465456",
      "fee": "yes",
      "name": "Los Olivos",
      "power_supply": "yes",
      "tents": "yes",
      "tourism": "caravan_site",
      "@geometry": "center"
    }
  },
  {
    "id": "node/569203751",
    "lat": -28.4687234,
    "lon": -65.7828458,
    "name": "Hotel Inti Huasi",
    "categoria": "hotel",
    "extra": {
      "@id": "node/569203751",
      "addr:housenumber": "299",
      "addr:street": "República",
      "email": "info@intihuasihote.com.ar",
      "name": "Hotel Inti Huasi",
      "phone": "+54-383 443-5705",
      "stars": "3",
      "tourism": "hotel",
      "website": "www.intihuasihotel.com.ar"
    }
  },
  {
    "id": "node/569210120",
    "lat": -28.4593738,
    "lon": -65.7810995,
    "name": "Salvador Apart Hotel",
    "categoria": "hotel",
    "extra": {
      "@id": "node/569210120",
      "addr:city": "San Fernando del Valle de Catamarca",
      "addr:housenumber": "431",
      "addr:street": "Esteban Echeverría",
      "beds": "65",
      "contact:facebook": "https://www.facebook.com/profile.php?id=100071093602932",
      "internet_access": "wlan",
      "name": "Salvador Apart Hotel",
      "phone": "+54 383 469-9041",
      "rooms": "20",
      "tourism": "hotel",
      "website": "https://www.salvadoraparthotel.com/"
    }
  },
  {
    "id": "node/569241940",
    "lat": -28.473802,
    "lon": -65.7754535,
    "name": "Residencial Tucumán",
    "categoria": "hotel",
    "extra": {
      "@id": "node/569241940",
      "name": "Residencial Tucumán",
      "phone": "+54 383 442-2209",
      "stars": "1",
      "tourism": "hotel"
    }
  },
  {
    "id": "node/569247549",
    "lat": -28.469201,
    "lon": -65.7757263,
    "name": "Residencial Delgado",
    "categoria": "hotel",
    "extra": {
      "@id": "node/569247549",
      "addr:housenumber": "788",
      "addr:street": "San Martín",
      "name": "Residencial Delgado",
      "phone": "+54-383 442-6109",
      "stars": "1",
      "tourism": "hotel"
    }
  },
  {
    "id": "node/569336099",
    "lat": -28.4752475,
    "lon": -65.7766226,
    "name": "Hotel Sol",
    "categoria": "hotel",
    "extra": {
      "@id": "node/569336099",
      "addr:housenumber": "1142",
      "addr:street": "Salta",
      "name": "Hotel Sol",
      "phone": "+54-03833 43-0803",
      "tourism": "hotel"
    }
  },
  {
    "id": "node/571698164",
    "lat": -28.2238485,
    "lon": -65.8760904,
    "name": "Hosteria El Rodeo",
    "categoria": "hotel",
    "extra": {
      "@id": "node/571698164",
      "addr:housenumber": "KM 37",
      "addr:street": "Las Malvinas",
      "email": "hosteriaelrodeo@live.com",
      "name": "Hosteria El Rodeo",
      "phone": "+54 383 449-0444",
      "tourism": "hotel"
    }
  },
  {
    "id": "node/571700038",
    "lat": -28.2097305,
    "lon": -65.8776736,
    "name": "Iglesia Ntra Señora de la Candelaria",
    "categoria": "place_of_worship",
    "extra": {
      "@id": "node/571700038",
      "amenity": "place_of_worship",
      "denomination": "catholic",
      "name": "Iglesia Ntra Señora de la Candelaria",
      "religion": "christian"
    }
  },
  {
    "id": "node/571702328",
    "lat": -28.2047028,
    "lon": -65.8768192,
    "name": "Iglesia Vieja (Pura y Limpia Concepcion)",
    "categoria": "place_of_worship",
    "extra": {
      "@id": "node/571702328",
      "amenity": "place_of_worship",
      "denomination": "catholic",
      "name": "Iglesia Vieja (Pura y Limpia Concepcion)",
      "religion": "christian"
    }
  },
  {
    "id": "node/571707993",
    "lat": -28.1573268,
    "lon": -65.6568062,
    "name": "Hosteria La Merced",
    "categoria": "hotel",
    "extra": {
      "@id": "node/571707993",
      "addr:city": "La Merced",
      "addr:street": "Malvinas Argentinas",
      "beds": "90",
      "contact:facebook": "https://www.facebook.com/p/Hosteria-Municipal-La-Merced-100054381316324/",
      "description": "18 habitaciones con baño privado; a 50 metros de RN 38",
      "is_in:municipality": "Paclín",
      "name": "Hosteria La Merced",
      "phone": "+54 9 383 419-5349",
      "rooms": "18",
      "tourism": "hotel"
    }
  },
  {
    "id": "node/571715109",
    "lat": -28.0689839,
    "lon": -65.5728178,
    "name": "Cabañas del Dique",
    "categoria": "hotel",
    "extra": {
      "@id": "node/571715109",
      "description": "5 cabañas. Especial para pescadores. Alquier de bote. venta de carnada.",
      "is_in": "Sumampa",
      "is_in:municipality": "Paclín",
      "name": "Cabañas del Dique",
      "note": "Especial para pescadores",
      "phone": "+54 3833 432459",
      "tourism": "hotel"
    }
  },
  {
    "id": "node/573588091",
    "lat": -28.4689647,
    "lon": -65.7732294,
    "name": "Seminario Diocesano",
    "categoria": "place_of_worship",
    "extra": {
      "@id": "node/573588091",
      "addr:city": "San Fernando del Valle de Catamarca",
      "addr:housenumber": "954",
      "addr:street": "San Martín",
      "amenity": "place_of_worship",
      "denomination": "catholic",
      "name": "Seminario Diocesano",
      "phone": "+54 383 443-4299",
      "religion": "christian"
    }
  },
  {
    "id": "node/573589422",
    "lat": -28.4660665,
    "lon": -65.7756564,
    "name": "Capilla de San Rafael",
    "categoria": "place_of_worship",
    "extra": {
      "@id": "node/573589422",
      "addr:street": "Tucumán",
      "amenity": "place_of_worship",
      "denomination": "catholic",
      "is_in": "San Fdo. del Valle de Catamarca",
      "name": "Capilla de San Rafael",
      "religion": "christian"
    }
  },
  {
    "id": "node/573590606",
    "lat": -28.4627195,
    "lon": -65.7758533,
    "name": "Parroquia San Antonio de Padua",
    "categoria": "place_of_worship",
    "extra": {
      "@id": "node/573590606",
      "addr:street": "Almagro",
      "amenity": "place_of_worship",
      "denomination": "catholic",
      "name": "Parroquia San Antonio de Padua",
      "religion": "christian"
    }
  },
  {
    "id": "node/573599326",
    "lat": -28.4741288,
    "lon": -65.770121,
    "name": "Parroquia Jesús Niño",
    "categoria": "place_of_worship",
    "extra": {
      "@id": "node/573599326",
      "amenity": "place_of_worship",
      "denomination": "catholic",
      "name": "Parroquia Jesús Niño",
      "religion": "christian"
    }
  },
  {
    "id": "node/573619268",
    "lat": -28.4577229,
    "lon": -65.7782499,
    "name": "Iglesia San José Obrero",
    "categoria": "place_of_worship",
    "extra": {
      "@id": "node/573619268",
      "amenity": "place_of_worship",
      "denomination": "catholic",
      "name": "Iglesia San José Obrero",
      "religion": "christian"
    }
  },
  {
    "id": "node/573731669",
    "lat": -28.4694172,
    "lon": -65.7803728,
    "name": "Hospedaje El Peregrino",
    "categoria": "hostel",
    "extra": {
      "@id": "node/573731669",
      "addr:city": "San Fernando del Valle de Catamarca",
      "addr:housenumber": "468",
      "addr:postcode": "K4700BOJ",
      "addr:street": "San Martín",
      "beds": "620",
      "contact:phone": "+54 383 4431201",
      "description": "Hospedaje para peregrinos - fiesta de la Virgen.",
      "name": "Hospedaje El Peregrino",
      "operator": "Obispado de Catamarca",
      "rooms": "212",
      "social_facility": "shelter",
      "tourism": "hostel"
    }
  },
  {
    "id": "way/582760803",
    "lat": -28.459955,
    "lon": -65.7524738,
    "name": "Plaza \"La Chacarita\"",
    "categoria": "otro",
    "extra": {
      "@id": "way/582760803",
      "leisure": "park",
      "name": "Plaza \"La Chacarita\"",
      "@geometry": "center"
    }
  },
  {
    "id": "node/585183347",
    "lat": -28.4599709,
    "lon": -65.8425216,
    "name": "El Calvario",
    "categoria": "otro",
    "extra": {
      "@id": "node/585183347",
      "historic": "wayside_cross",
      "name": "El Calvario",
      "religion": "christian"
    }
  },
  {
    "id": "way/593184210",
    "lat": -28.460433,
    "lon": -65.7701154,
    "name": "Plaza 2 de Abril",
    "categoria": "otro",
    "extra": {
      "@id": "way/593184210",
      "leisure": "park",
      "name": "Plaza 2 de Abril",
      "@geometry": "center"
    }
  },
  {
    "id": "node/595770372",
    "lat": -27.2248765,
    "lon": -66.8351953,
    "name": "Museo Arqueológico Jorge Saravia",
    "categoria": "museum",
    "extra": {
      "@id": "node/595770372",
      "name": "Museo Arqueológico Jorge Saravia",
      "tourism": "museum"
    }
  },
  {
    "id": "node/595771318",
    "lat": -27.2133861,
    "lon": -66.865885,
    "name": "Termas de la quebrada",
    "categoria": "attraction",
    "extra": {
      "@id": "node/595771318",
      "name": "Termas de la quebrada",
      "tourism": "attraction"
    }
  },
  {
    "id": "node/598173891",
    "lat": -27.6922031,
    "lon": -67.6081198,
    "name": "Por aqui pasó Dakar2009",
    "categoria": "attraction",
    "extra": {
      "@id": "node/598173891",
      "name": "Por aqui pasó Dakar2009",
      "tourism": "attraction"
    }
  },
  {
    "id": "node/598174680",
    "lat": -27.7423766,
    "lon": -67.5506701,
    "name": "Termas de Fiambalá",
    "categoria": "picnic_site",
    "extra": {
      "@id": "node/598174680",
      "addr:city": "Fiambalá",
      "addr:municipality": "Tinogasta",
      "contact:facebook": "https://www.facebook.com/turismofiambalaoficial",
      "leisure": "water_park",
      "name": "Termas de Fiambalá",
      "phone": "+54 9 3837 40-4925",
      "tourism": "picnic_site",
      "website": "https://www.turismofiambala.com.ar/qu%C3%A9-visitar/termas-de-fiambal%C3%A1"
    }
  },
  {
    "id": "node/598182093",
    "lat": -27.7678809,
    "lon": -68.0118535,
    "name": "Refugio N° 1 Gallina Muerte",
    "categoria": "wilderness_hut",
    "extra": {
      "@id": "node/598182093",
      "access": "yes",
      "drinking_water": "no",
      "fee": "no",
      "name": "Refugio N° 1 Gallina Muerte",
      "shower": "no",
      "toilets": "no",
      "tourism": "wilderness_hut"
    }
  },
  {
    "id": "node/600428677",
    "lat": -28.1837804,
    "lon": -65.791722,
    "name": "Zona de Picnic",
    "categoria": "picnic_site",
    "extra": {
      "@id": "node/600428677",
      "name": "Zona de Picnic",
      "tourism": "picnic_site"
    }
  },
  {
    "id": "node/600515469",
    "lat": -28.1623803,
    "lon": -65.7929883,
    "name": "Yapura - Habitacion con baño para alquilar",
    "categoria": "hostel",
    "extra": {
      "@id": "node/600515469",
      "description": "Hospedaje - Habitaciones",
      "is_in": "La Puerta",
      "is_in:municipality": "Ambato",
      "name": "Yapura - Habitacion con baño para alquilar",
      "tourism": "hostel"
    }
  },
  {
    "id": "node/606135631",
    "lat": -27.6796655,
    "lon": -67.6170779,
    "name": "Residencial Doña Pocha",
    "categoria": "hostel",
    "extra": {
      "@id": "node/606135631",
      "addr:street": "Islas Malvinas",
      "is_in": "Fiambalá",
      "is_in:municipality": "Tinogasta",
      "name": "Residencial Doña Pocha",
      "note": "2 porciones de arroz con pollo + 1 coca=$75 - enero2009",
      "phone": "+54-3837 496137",
      "tourism": "hostel"
    }
  },
  {
    "id": "node/606136867",
    "lat": -27.6895801,
    "lon": -67.6120151,
    "name": "Zona de Espectadores - Dakar 2010",
    "categoria": "attraction",
    "extra": {
      "@id": "node/606136867",
      "name": "Zona de Espectadores - Dakar 2010",
      "tourism": "attraction"
    }
  },
  {
    "id": "way/607497569",
    "lat": -28.4495352,
    "lon": -65.7200738,
    "name": "Plaza del Aborigen",
    "categoria": "otro",
    "extra": {
      "@id": "way/607497569",
      "alt_name": "Plaza El Aborigen",
      "leisure": "park",
      "loc_name": "Plaza del Indio",
      "name": "Plaza del Aborigen",
      "@geometry": "center"
    }
  },
  {
    "id": "way/607506617",
    "lat": -28.4481355,
    "lon": -65.722706,
    "name": "Plaza Ramón Castillo",
    "categoria": "otro",
    "extra": {
      "@id": "way/607506617",
      "addr:city": "Villa Dolores",
      "alt_name": "Plaza de Villa Dolores",
      "leisure": "park",
      "loc_name": "Plaza del Correo",
      "name": "Plaza Ramón Castillo",
      "official_name": "Plaza Ramón S. Castillo",
      "@geometry": "center"
    }
  },
  {
    "id": "way/607810502",
    "lat": -28.4465167,
    "lon": -65.7059428,
    "name": "Plaza de Santa Rosa",
    "categoria": "otro",
    "extra": {
      "@id": "way/607810502",
      "construction": "park",
      "leisure": "park",
      "name": "Plaza de Santa Rosa",
      "@geometry": "center"
    }
  },
  {
    "id": "way/607810503",
    "lat": -28.4390272,
    "lon": -65.7108705,
    "name": "Plaza Constitución / Juan Pablo II",
    "categoria": "otro",
    "extra": {
      "@id": "way/607810503",
      "leisure": "park",
      "name": "Plaza Constitución / Juan Pablo II",
      "@geometry": "center"
    }
  },